"Interval"|"ms"|0|0|1,"Utc"|"ms"|0|0|1,"RearRight"|""|0.0|5.0|50,"RearLeft"|""|0.0|5.0|50,"FrontLeft"|""|0.0|5.0|50,"FrontRight"|""|0.0|5.0|50,"Battery"|"Volts"|0.0|20.0|1,"AccelX"|"G"|-3.0|3.0|25,"AccelY"|"G"|-3.0|3.0|25,"AccelZ"|"G"|-3.0|3.0|25,"Yaw"|"Deg/Sec"|-120|120|25,"Pitch"|"Deg/Sec"|-120|120|25,"Roll"|"Deg/Sec"|-120|120|25,"RPM"|"RPM"|0|12500|50,"TPS"|"%"|0.0|100.0|50,"InjectorPW"|"ms"|0.0|100.0|25,"Baro"|"kPa"|0|105|1,"MAP"|"kPa"|0|255|25,"AFR"|"ratio"|0.0|20.0|25,"IAT"|"C"|-20|205|25,"EngineTemp"|"C"|0|200|1,"OilPressure"|"psi"|0.0|200.0|50,"OilTemp"|"F"|0|300|1,"FuelTemp"|"C"|0|1024|1,"Latitude"|"Degrees"|-180.0|180.0|10,"Longitude"|"Degrees"|-180.0|180.0|10,"Speed"|"mph"|0.0|150.0|10,"Distance"|"mi"|0.0|0.0|10,"Altitude"|"ft"|0.0|4000.0|10,"GPSSats"|""|0|20|10,"GPSQual"|""|0|5|10,"GPSDOP"|""|0.0|20.0|10,"LapCount"|""|0|0|10,"LapTime"|"Min"|0.0|0.0|10,"Sector"|""|0|0|10,"SectorTime"|"Min"|0.0|0.0|10,"PredTime"|"Min"|0.0|0.0|10,"ElapsedTime"|"Min"|0.0|0.0|10,"CurrentLap"|""|0|0|10
144443,1529697964497,1.27,1.35,1.25,1.2,,,,,,,,3844,2.6,,,,,,,42.05,,,,,,,,,,,,,,,,,
144463,1529697964507,1.27,1.35,1.25,1.2,,0.01,0.0,-1.14,-0,-0,1,3844,2.6,3.61,,68,22.01,33,,40.3,,,40.845962,-96.770599,0.0,0.002,1192.7,8,3,1.8,0,0.0,-1,0.0,0.0,0.0,0
144483,1529697964527,1.28,1.36,1.24,1.21,,,,,,,,3727,2.4,,,,,,,40.3,,,,,,,,,,,,,,,,,
144503,1529697964547,1.28,1.36,1.25,1.2,,0.03,0.01,-1.06,-0,-0,1,3727,2.4,3.62,,68,22.01,33,,40.3,,,,,,,,,,,,,,,,,
144523,1529697964567,1.28,1.36,1.25,1.2,,,,,,,,3727,2.4,,,,,,,40.3,,,,,,,,,,,,,,,,,
144543,1529697964591,1.27,1.36,1.25,1.21,,0.03,-0.03,-0.98,-0,-0,1,3553,2.5,3.62,,68,22.01,33,,40.3,,,,,,,,,,,,,,,,,
144563,1529697964611,1.28,1.36,1.25,1.2,,,,,,,,3553,2.5,,,,,,,35.7,,,40.845962,-96.770599,0.0,0.002,1192.7,8,3,1.8,0,0.0,-1,0.0,0.0,0.0,0
144583,1529697964631,1.28,1.36,1.25,1.21,,-0.01,-0.03,-1.03,-0,-0,1,3412,2.6,3.6,,68,22.01,33,,35.7,,,,,,,,,,,,,,,,,
144603,1529697964651,1.28,1.37,1.26,1.21,,,,,,,,3412,2.6,,,,,,,35.7,,,,,,,,,,,,,,,,,
144623,1529697964671,1.28,1.36,1.25,1.21,,0.06,0.01,-1.07,-0,-0,1,3412,2.6,3.6,,68,22.01,32,,35.7,,,,,,,,,,,,,,,,,
144643,1529697964691,1.28,1.37,1.25,1.21,,,,,,,,3400,2.7,,,,,,,35.7,,,,,,,,,,,,,,,,,
144663,1529697964703,1.28,1.36,1.26,1.21,,-0.0,-0.05,-1.16,-0,-0,1,3400,2.7,3.56,,67,22.01,32,,35.22,,,40.845962,-96.770599,0.0,0.002,1192.7,8,3,1.8,0,0.0,-1,0.0,0.0,0.0,0
144683,1529697964723,1.28,1.37,1.25,1.21,,,,,,,,3346,2.7,,,,,,,35.22,,,,,,,,,,,,,,,,,
144703,1529697964743,1.29,1.37,1.25,1.21,,0.04,-0.01,-1.05,-0,0,0,3346,2.7,3.55,,68,22.01,32,,35.22,,,,,,,,,,,,,,,,,
144723,1529697964763,1.28,1.37,1.26,1.21,,,,,,,,3346,2.7,,,,,,,35.22,,,,,,,,,,,,,,,,,
144743,1529697964783,1.29,1.37,1.26,1.22,,0.02,0.04,-1.16,-0,-0,0,3271,2.7,3.6,,69,22.01,32,,35.22,,,,,,,,,,,,,,,,,
144763,1529697964807,1.29,1.37,1.26,1.22,,,,,,,,3271,2.7,,,,,,,31.05,,,40.845962,-96.770599,0.0,0.002,1192.7,8,3,1.8,0,0.0,-1,0.0,0.0,0.0,0
144783,1529697964827,1.28,1.37,1.26,1.22,,-0.03,-0.06,-1.26,-0,-1,0,3007,2.7,3.75,,69,22.01,32,,31.05,,,,,,,,,,,,,,,,,
144803,1529697964847,1.27,1.37,1.27,1.22,,,,,,,,3007,2.7,,,,,,,31.05,,,,,,,,,,,,,,,,,
144823,1529697964867,1.29,1.38,1.26,1.22,,-0.07,-0.12,-1.29,-0,-1,0,3007,2.7,3.75,,72,22.01,32,,31.05,,,,,,,,,,,,,,,,,
144843,1529697964897,1.29,1.38,1.26,1.22,,,,,,,,2777,2.6,,,,,,,31.05,,,,,,,,,,,,,,,,,
144863,1529697964917,1.29,1.38,1.27,1.22,,-0.04,-0.1,-1.21,-0,-0,0,2777,2.6,4.1,,75,22.01,32,,24.78,,,40.845962,-96.770599,0.0,0.002,1192.7,8,3,1.8,0,0.0,-1,0.0,0.0,0.0,0
144883,1529697964937,1.29,1.38,1.26,1.22,,,,,,,,2548,2.7,,,,,,,24.78,,,,,,,,,,,,,,,,,
144903,1529697964957,1.29,1.38,1.27,1.23,,-0.03,-0.1,-1.18,-0,-0,0,2548,2.7,4.07,,77,22.01,32,,24.78,,,,,,,,,,,,,,,,,
144923,1529697964977,1.29,1.38,1.26,1.22,,,,,,,,2548,2.7,,,,,,,24.78,,,,,,,,,,,,,,,,,
144943,1529697964997,1.29,1.38,1.26,1.22,,-0.03,-0.07,-1.13,-0,-0,-0,2268,2.8,4.09,,79,22.01,32,,24.78,,,,,,,,,,,,,,,,,
144963,1529697964999,1.29,1.38,1.27,1.22,,,,,,,,2268,2.8,,,,,,,17.22,,,40.845962,-96.770599,0.0,0.002,1192.7,8,3,1.8,0,0.0,-1,0.0,0.0,0.0,0
144983,1529697965019,1.29,1.38,1.26,1.22,,-0.02,-0.07,-1.14,-0,-0,-0,1981,6.8,4.26,,79,22.01,32,,17.22,,,,,,,,,,,,,,,,,
145003,1529697965039,1.29,1.38,1.27,1.22,,,,,,,,1981,6.8,,,,,,,17.22,,,,,,,,,,,,,,,,,
145023,1529697965059,1.29,1.38,1.27,1.22,,-0.01,-0.05,-1.12,-0,-0,0,1981,6.8,4.26,,85,22.01,32,,17.22,,,,,,,,,,,,,,,,,
145043,1529697965079,1.29,1.38,1.27,1.21,,,,,,,,1872,10.4,,,,,,,17.22,,,,,,,,,,,,,,,,,
145063,1529697965108,1.29,1.38,1.26,1.22,13.09,-0.0,-0.04,-1.12,-0,-0,0,1872,10.4,4.33,70,90,22.01,32,82,13.17,79,32,40.845962,-96.770599,0.0,0.002,1192.7,8,3,1.8,0,0.0,-1,0.0,0.0,0.0,0
145083,1529697965128,1.29,1.38,1.26,1.22,,,,,,,,1709,11.0,,,,,,,13.17,,,,,,,,,,,,,,,,,
145103,1529697965148,1.29,1.38,1.27,1.22,,0.01,-0.06,-1.14,-0,-0,0,1709,11.0,4.39,,94,22.01,32,,13.17,,,,,,,,,,,,,,,,,
145123,1529697965168,1.29,1.38,1.26,1.22,,,,,,,,1709,11.0,,,,,,,13.17,,,,,,,,,,,,,,,,,
145143,1529697965192,1.29,1.38,1.27,1.22,,0.03,-0.06,-1.1,-0,-0,0,1360,10.4,4.21,,96,22.01,32,,13.17,,,,,,,,,,,,,,,,,
145163,1529697965212,1.29,1.39,1.26,1.22,,,,,,,,1360,10.4,,,,,,,8.35,,,40.845962,-96.770599,0.0,0.002,1192.7,8,3,1.8,0,0.0,-1,0.0,0.0,0.0,0
145183,1529697965232,1.29,1.38,1.27,1.22,,0.03,-0.05,-1.1,-0,0,0,1128,7.9,4.08,,96,22.01,32,,8.35,,,,,,,,,,,,,,,,,
145203,1529697965252,1.29,1.38,1.26,1.22,,,,,,,,1128,7.9,,,,,,,8.35,,,,,,,,,,,,,,,,,
145223,1529697965272,1.29,1.39,1.27,1.22,,0.04,-0.03,-1.07,-0,-0,-0,1128,7.9,4.08,,97,22.01,32,,8.35,,,,,,,,,,,,,,,,,
145243,1529697965292,1.29,1.39,1.27,1.21,,,,,,,,1128,7.9,,,,,,,8.35,,,,,,,,,,,,,,,,,
145263,1529697965300,1.29,1.38,1.27,1.22,,0.04,-0.03,-1.06,-0,-0,-0,1128,7.9,4.08,,97,22.01,32,,7.03,,,40.845962,-96.770599,0.0,0.002,1192.7,8,3,1.8,0,0.0,-1,0.0,0.0,0.0,0
145283,1529697965320,1.29,1.39,1.27,1.21,,,,,,,,1060,8.3,,,,,,,7.03,,,,,,,,,,,,,,,,,
145303,1529697965340,1.29,1.39,1.26,1.22,,0.04,-0.01,-1.04,-0,-0,-0,1060,8.3,4.11,,99,22.01,32,,7.03,,,,,,,,,,,,,,,,,
145323,1529697965360,1.29,1.38,1.27,1.21,,,,,,,,1060,8.3,,,,,,,7.03,,,,,,,,,,,,,,,,,
145343,1529697965380,1.29,1.38,1.26,1.21,,0.04,-0.02,-1.05,-0,-0,0,926,11.6,4.12,,99,22.01,32,,7.03,,,,,,,,,,,,,,,,,
145363,1529697965406,1.29,1.39,1.26,1.22,,,,,,,,926,11.6,,,,,,,4.42,,,40.845962,-96.770599,0.0,0.002,1192.7,8,3,1.8,0,0.0,-1,0.0,0.0,0.0,0
145383,1529697965426,1.29,1.39,1.26,1.22,,0.04,-0.01,-1.05,-0,-0,0,926,11.7,4.12,,99,22.01,32,,4.42,,,,,,,,,,,,,,,,,
145403,1529697965446,1.29,1.38,1.26,1.22,,,,,,,,926,11.7,,,,,,,4.42,,,,,,,,,,,,,,,,,
145423,1529697965466,1.29,1.39,1.27,1.21,,0.05,-0.02,-1.04,-0,0,0,926,11.7,4.12,,99,22.01,32,,4.42,,,,,,,,,,,,,,,,,
145443,1529697965494,1.29,1.39,1.27,1.21,,,,,,,,645,10.6,,,,,,,4.42,,,,,,,,,,,,,,,,,
145463,1529697965514,1.29,1.38,1.27,1.22,,0.05,-0.02,-1.04,-0,0,0,645,10.6,4.09,,99,22.01,32,,5.32,,,40.845962,-96.770599,0.0,0.002,1192.7,8,3,1.8,0,0.0,-1,0.0,0.0,0.0,0
145483,1529697965534,1.29,1.38,1.27,1.21,,,,,,,,887,4.0,,,,,,,5.32,,,,,,,,,,,,,,,,,
145503,1529697965554,1.29,1.38,1.26,1.22,,0.04,-0.02,-1.03,-0,0,0,887,4.0,3.11,,98,22.01,32,,5.32,,,,,,,,,,,,,,,,,
145523,1529697965574,1.29,1.39,1.26,1.21,,,,,,,,887,4.0,,,,,,,5.32,,,,,,,,,,,,,,,,,
145543,1529697965594,1.29,1.38,1.26,1.21,,0.04,-0.03,-1.02,-0,0,0,880,4.0,3.52,,98,22.01,32,,5.32,,,,,,,,,,,,,,,,,
145563,1529697965602,1.29,1.38,1.26,1.21,,,,,,,,880,4.0,,,,,,,4.55,,,40.845962,-96.770599,0.0,0.002,1192.7,8,3,1.8,0,0.0,-1,0.0,0.0,0.0,0
145583,1529697965622,1.29,1.39,1.27,1.21,,0.04,-0.02,-1.02,-0,0,-0,880,4.0,3.52,,98,22.01,32,,4.55,,,,,,,,,,,,,,,,,
145603,1529697965642,1.29,1.38,1.27,1.22,,,,,,,,880,4.0,,,,,,,4.55,,,,,,,,,,,,,,,,,
145623,1529697965662,1.29,1.39,1.26,1.21,,0.03,-0.02,-1.04,-0,0,-0,880,4.0,3.52,,99,22.01,32,,4.55,,,,,,,,,,,,,,,,,
145643,1529697965682,1.29,1.39,1.27,1.21,,,,,,,,710,4.0,,,,,,,4.55,,,,,,,,,,,,,,,,,
145663,1529697965708,1.29,1.38,1.26,1.21,,0.02,-0.01,-1.04,-0,-0,0,710,4.0,4.02,,100,22.01,32,,2.82,,,40.845962,-96.770599,0.0,0.002,1192.7,8,3,1.8,0,0.0,-1,0.0,0.0,0.0,0
145683,1529697965728,1.29,1.39,1.27,1.21,,,,,,,,710,4.1,,,,,,,2.82,,,,,,,,,,,,,,,,,
145703,1529697965748,1.29,1.39,1.26,1.21,,0.02,-0.02,-1.03,-0,-0,0,710,4.1,4.02,,99,22.01,32,,2.82,,,,,,,,,,,,,,,,,
145723,1529697965768,1.29,1.38,1.26,1.21,,,,,,,,710,4.1,,,,,,,2.82,,,,,,,,,,,,,,,,,
145743,1529697965798,1.29,1.39,1.26,1.21,,0.03,-0.01,-1.02,-0,0,-0,710,10.9,4.02,,100,22.01,32,,2.82,,,,,,,,,,,,,,,,,
145763,1529697965818,1.29,1.39,1.26,1.21,,,,,,,,710,10.9,,,,,,,1.3,,,40.845962,-96.770599,0.0,0.002,1192.7,8,3,1.8,0,0.0,-1,0.0,0.0,0.0,0
145783,1529697965838,1.29,1.38,1.26,1.21,,0.04,-0.02,-1.02,-0,-0,-0,710,19.3,4.02,,100,22.01,32,,1.3,,,,,,,,,,,,,,,,,
145803,1529697965858,1.29,1.39,1.26,1.21,,,,,,,,710,19.3,,,,,,,1.3,,,,,,,,,,,,,,,,,
145823,1529697965878,1.29,1.38,1.26,1.21,,0.04,-0.02,-1.02,-0,-0,-0,710,19.3,4.02,,100,22.01,32,,1.3,,,,,,,,,,,,,,,,,
145843,1529697965898,1.29,1.38,1.26,1.21,,,,,,,,0,19.5,,,,,,,1.3,,,,,,,,,,,,,,,,,
145863,1529697965904,1.29,1.38,1.26,1.21,,0.04,-0.02,-1.02,-0,-0,-0,0,19.5,4.02,,100,22.01,32,,1.38,,,40.845962,-96.770599,0.0,0.002,1192.7,8,3,1.8,0,0.0,-1,0.0,0.0,0.0,0
145883,1529697965924,1.29,1.38,1.26,1.21,,,,,,,,0,22.6,,,,,,,1.38,,,,,,,,,,,,,,,,,
145903,1529697965944,1.29,1.38,1.26,1.21,,0.03,-0.02,-1.02,-0,-0,-0,0,22.6,4.02,,100,22.01,32,,1.38,,,,,,,,,,,,,,,,,
145923,1529697965964,1.29,1.38,1.26,1.21,,,,,,,,0,22.6,,,,,,,1.38,,,,,,,,,,,,,,,,,
145943,1529697965992,1.29,1.38,1.26,1.21,,0.03,-0.02,-1.02,-0,0,-0,0,26.7,4.02,,100,22.01,32,,1.38,,,,,,,,,,,,,,,,,
145963,1529697966012,1.28,1.39,1.26,1.21,,,,,,,,0,26.7,,,,,,,1.4,,,40.845962,-96.770599,0.0,0.002,1192.7,8,3,1.8,0,0.0,-1,0.0,0.0,0.0,0
145983,1529697966032,1.29,1.39,1.26,1.21,,0.03,-0.02,-1.02,-0,-0,0,0,26.8,4.02,,100,22.01,32,,1.4,,,,,,,,,,,,,,,,,
146003,1529697966052,1.29,1.39,1.26,1.21,,,,,,,,0,26.8,,,,,,,1.4,,,,,,,,,,,,,,,,,
146023,1529697966072,1.29,1.38,1.26,1.21,,0.03,-0.01,-1.02,-0,-0,0,0,26.8,4.02,,100,22.01,32,,1.4,,,,,,,,,,,,,,,,,
146043,1529697966096,1.29,1.39,1.26,1.21,,,,,,,,0,26.8,,,,,,,1.4,,,,,,,,,,,,,,,,,
146063,1529697966116,1.29,1.38,1.26,1.21,13.17,0.04,-0.01,-1.02,-0,-0,0,0,26.8,4.02,70,100,22.01,32,82,1.3,79,32,40.845962,-96.770599,0.0,0.002,1192.7,8,3,1.8,0,0.0,-1,0.0,0.0,0.0,0
146083,1529697966136,1.29,1.39,1.26,1.21,,,,,,,,0,22.3,,,,,,,1.3,,,,,,,,,,,,,,,,,
146103,1529697966156,1.29,1.39,1.26,1.21,,0.04,-0.01,-1.02,-0,-0,0,0,22.3,4.02,,100,22.01,32,,1.3,,,,,,,,,,,,,,,,,
146123,1529697966176,1.29,1.38,1.26,1.21,,,,,,,,0,22.3,,,,,,,1.3,,,,,,,,,,,,,,,,,
146143,1529697966196,1.29,1.38,1.26,1.21,,0.04,-0.01,-1.02,-0,0,-0,0,4.7,4.02,,100,22.01,32,,1.3,,,,,,,,,,,,,,,,,
146163,1529697966207,1.29,1.38,1.26,1.21,,,,,,,,0,4.7,,,,,,,1.32,,,40.845962,-96.770599,0.0,0.002,1192.7,8,3,1.8,0,0.0,-1,0.0,0.0,0.0,0
146183,1529697966227,1.28,1.39,1.26,1.21,,0.03,-0.01,-1.02,0,-0,0,0,4.6,4.02,,100,22.01,32,,1.32,,,,,,,,,,,,,,,,,
146203,1529697966247,1.29,1.38,1.26,1.21,,,,,,,,0,4.6,,,,,,,1.32,,,,,,,,,,,,,,,,,
146223,1529697966267,1.29,1.38,1.26,1.21,,0.03,-0.01,-1.02,0,-0,0,0,4.6,4.02,,100,22.01,32,,1.32,,,,,,,,,,,,,,,,,
146243,1529697966287,1.29,1.38,1.26,1.21,,,,,,,,0,4.6,,,,,,,1.32,,,,,,,,,,,,,,,,,
146263,1529697966309,1.28,1.38,1.26,1.21,,0.03,-0.01,-1.02,0,-0,0,0,4.6,4.02,,100,22.01,32,,1.3,,,40.845962,-96.770599,0.0,0.002,1192.7,8,3,1.8,0,0.0,-1,0.0,0.0,0.0,0
146283,1529697966329,1.29,1.38,1.26,1.21,,,,,,,,0,4.5,,,,,,,1.3,,,,,,,,,,,,,,,,,
146303,1529697966349,1.29,1.38,1.26,1.21,,0.03,-0.02,-1.02,0,-0,0,0,4.5,4.02,,100,22.01,32,,1.3,,,,,,,,,,,,,,,,,
146323,1529697966369,1.29,1.38,1.26,1.21,,,,,,,,0,4.5,,,,,,,1.3,,,,,,,,,,,,,,,,,
146343,1529697966395,1.29,1.38,1.26,1.21,,0.04,-0.02,-1.02,0,-0,0,0,4.6,4.02,,100,22.01,32,,1.3,,,,,,,,,,,,,,,,,
146363,1529697966415,1.29,1.38,1.26,1.21,,,,,,,,0,4.6,,,,,,,1.3,,,40.845962,-96.770599,0.0,0.002,1192.7,8,3,1.8,0,0.0,-1,0.0,0.0,0.0,0
146383,1529697966435,1.29,1.38,1.26,1.21,,0.04,-0.02,-1.02,0,-0,0,0,4.6,4.02,,100,22.01,32,,1.3,,,,,,,,,,,,,,,,,
146403,1529697966455,1.29,1.39,1.26,1.21,,,,,,,,0,4.6,,,,,,,1.3,,,,,,,,,,,,,,,,,
146423,1529697966475,1.29,1.38,1.26,1.21,,0.03,-0.02,-1.02,0,-0,0,0,4.6,4.02,,100,22.01,32,,1.3,,,,,,,,,,,,,,,,,
146443,1529697966497,1.29,1.38,1.26,1.21,,,,,,,,0,4.5,,,,,,,1.3,,,,,,,,,,,,,,,,,
146463,1529697966517,1.28,1.38,1.26,1.2,,0.02,-0.02,-1.02,0,-0,0,0,4.5,4.02,,100,22.01,32,,1.3,,,40.845962,-96.770599,0.0,0.002,1192.7,8,3,1.8,0,0.0,-1,0.0,0.0,0.0,0
146483,1529697966537,1.29,1.38,1.26,1.21,,,,,,,,0,4.5,,,,,,,1.3,,,,,,,,,,,,,,,,,
146503,1529697966557,1.29,1.38,1.26,1.21,,0.02,-0.02,-1.02,0,-0,0,0,4.5,4.02,,100,22.01,32,,1.3,,,,,,,,,,,,,,,,,
146523,1529697966577,1.29,1.38,1.26,1.2,,,,,,,,0,4.5,,,,,,,1.3,,,,,,,,,,,,,,,,,
146543,1529697966597,1.29,1.38,1.24,1.21,,0.03,-0.02,-1.02,0,-0,0,0,4.5,4.02,,100,22.01,32,,1.3,,,,,,,,,,,,,,,,,
146563,1529697966605,1.29,1.38,1.26,1.21,,,,,,,,0,4.5,,,,,,,1.3,,,40.845962,-96.770599,0.0,0.002,1192.7,8,3,1.8,0,0.0,-1,0.0,0.0,0.0,0
146583,1529697966625,1.29,1.38,1.26,1.21,,0.03,-0.02,-1.02,-0,-0,0,0,4.5,4.02,,100,22.01,32,,1.3,,,,,,,,,,,,,,,,,
146603,1529697966645,1.29,1.38,1.26,1.21,,,,,,,,0,4.5,,,,,,,1.3,,,,,,,,,,,,,,,,,
146623,1529697966665,1.29,1.38,1.26,1.21,,0.04,-0.02,-1.02,-0,-0,0,0,4.5,4.02,,100,22.01,33,,1.3,,,,,,,,,,,,,,,,,
146643,1529697966685,1.29,1.38,1.26,1.21,,,,,,,,0,4.6,,,,,,,1.3,,,,,,,,,,,,,,,,,
146663,1529697966707,1.29,1.38,1.26,1.21,,0.03,-0.02,-1.02,-0,-0,0,0,4.6,4.02,,100,22.01,33,,1.3,,,40.845962,-96.770599,0.0,0.002,1192.7,8,3,1.8,0,0.0,-1,0.0,0.0,0.0,0
146683,1529697966727,1.29,1.38,1.26,1.21,,,,,,,,0,4.6,,,,,,,1.3,,,,,,,,,,,,,,,,,
146703,1529697966747,1.29,1.38,1.26,1.2,,0.03,-0.02,-1.02,-0,-0,0,0,4.6,4.02,,100,22.01,33,,1.3,,,,,,,,,,,,,,,,,
146723,1529697966767,1.28,1.38,1.26,1.2,,,,,,,,0,4.6,,,,,,,1.3,,,,,,,,,,,,,,,,,
146743,1529697966795,1.29,1.38,1.26,1.21,,0.02,-0.02,-1.02,-0,-0,0,0,4.6,4.02,,100,22.01,33,,1.3,,,,,,,,,,,,,,,,,
146763,1529697966815,1.28,1.38,1.25,1.2,,,,,,,,0,4.6,,,,,,,1.3,,,40.845962,-96.770599,0.0,0.002,1192.7,8,3,1.8,0,0.0,-1,0.0,0.0,0.0,0
146783,1529697966835,1.28,1.38,1.26,1.2,,0.03,-0.02,-1.02,-0,-0,0,0,4.6,4.02,,100,22.01,33,,1.3,,,,,,,,,,,,,,,,,
146803,1529697966855,1.29,1.38,1.26,1.21,,,,,,,,0,4.6,,,,,,,1.3,,,,,,,,,,,,,,,,,
146823,1529697966875,1.29,1.38,1.26,1.2,,0.03,-0.02,-1.02,-0,-0,0,0,4.6,4.02,,100,22.01,33,,1.3,,,,,,,,,,,,,,,,,
146843,1529697966897,1.29,1.38,1.26,1.2,,,,,,,,0,4.6,,,,,,,1.3,,,,,,,,,,,,,,,,,
146863,1529697966917,1.28,1.38,1.25,1.21,,0.03,-0.02,-1.02,-0,-0,0,0,4.6,4.02,,100,22.01,33,,1.3,,,40.845962,-96.770599,0.0,0.002,1192.7,8,3,1.8,0,0.0,-1,0.0,0.0,0.0,0
146883,1529697966937,1.29,1.39,1.25,1.21,,,,,,,,0,4.5,,,,,,,1.3,,,,,,,,,,,,,,,,,
146903,1529697966957,1.28,1.38,1.26,1.21,,0.03,-0.02,-1.02,-0,-0,0,0,4.5,4.02,,100,22.01,33,,1.3,,,,,,,,,,,,,,,,,
146923,1529697966977,1.28,1.38,1.26,1.2,,,,,,,,0,4.5,,,,,,,1.3,,,,,,,,,,,,,,,,,
146943,1529697966997,1.29,1.38,1.25,1.2,,0.03,-0.02,-1.02,-0,-0,0,0,4.5,4.02,,100,22.01,33,,1.3,,,,,,,,,,,,,,,,,
146963,1529697967003,1.28,1.38,1.26,1.2,,,,,,,,0,4.5,,,,,,,1.3,,,40.845962,-96.770599,0.0,0.002,1192.7,8,3,1.8,0,0.0,-1,0.0,0.0,0.0,0
146983,1529697967023,1.28,1.38,1.25,1.21,,0.02,-0.01,-1.02,-0,-0,0,0,4.6,4.02,,100,22.01,33,,1.3,,,,,,,,,,,,,,,,,
147003,1529697967043,1.28,1.38,1.26,1.21,,,,,,,,0,4.6,,,,,,,1.3,,,,,,,,,,,,,,,,,
147023,1529697967063,1.29,1.38,1.26,1.2,,0.03,-0.01,-1.02,-0,-0,0,0,4.6,4.02,,100,22.01,33,,1.3,,,,,,,,,,,,,,,,,
147043,1529697967083,1.28,1.38,1.25,1.2,,,,,,,,0,4.6,,,,,,,1.3,,,,,,,,,,,,,,,,,
147063,1529697967106,1.28,1.38,1.26,1.2,13.18,0.03,-0.01,-1.02,-0,-0,0,0,4.6,4.02,70,100,22.01,33,82,1.32,79,32,40.845962,-96.770599,0.0,0.002,1192.7,8,3,1.8,0,0.0,-1,0.0,0.0,0.0,0
147083,1529697967126,1.28,1.38,1.26,1.21,,,,,,,,0,4.6,,,,,,,1.32,,,,,,,,,,,,,,,,,
147103,1529697967146,1.28,1.38,1.26,1.2,,0.03,-0.01,-1.02,-0,-0,0,0,4.6,4.02,,100,22.01,33,,1.32,,,,,,,,,,,,,,,,,
147123,1529697967166,1.28,1.38,1.25,1.2,,,,,,,,0,4.6,,,,,,,1.32,,,,,,,,,,,,,,,,,
147143,1529697967194,1.28,1.38,1.25,1.2,,0.03,-0.01,-1.02,-0,-0,0,0,4.6,4.02,,100,22.01,33,,1.32,,,,,,,,,,,,,,,,,
147163,1529697967214,1.28,1.38,1.25,1.2,,,,,,,,0,4.6,,,,,,,1.3,,,40.845962,-96.770599,0.0,0.002,1192.7,8,3,1.8,0,0.0,-1,0.0,0.0,0.0,0
147183,1529697967234,1.29,1.38,1.26,1.2,,0.03,-0.01,-1.02,-0,-0,0,0,4.6,4.02,,100,22.01,33,,1.3,,,,,,,,,,,,,,,,,
147203,1529697967254,1.29,1.38,1.25,1.2,,,,,,,,0,4.6,,,,,,,1.3,,,,,,,,,,,,,,,,,
147223,1529697967274,1.29,1.38,1.26,1.2,,0.02,-0.01,-1.02,-0,-0,0,0,4.6,4.02,,100,22.01,33,,1.3,,,,,,,,,,,,,,,,,
147243,1529697967296,1.28,1.38,1.26,1.2,,,,,,,,0,4.5,,,,,,,1.3,,,,,,,,,,,,,,,,,
147263,1529697967316,1.28,1.38,1.25,1.2,,0.03,-0.01,-1.02,-0,-0,0,0,4.5,4.02,,100,22.01,33,,1.3,,,40.845962,-96.770599,0.0,0.002,1192.7,8,3,1.8,0,0.0,-1,0.0,0.0,0.0,0
147283,1529697967336,1.29,1.38,1.26,1.2,,,,,,,,0,4.6,,,,,,,1.3,,,,,,,,,,,,,,,,,
147303,1529697967356,1.28,1.38,1.25,1.2,,0.03,-0.01,-1.02,-0,-0,0,0,4.6,4.02,,100,22.01,33,,1.3,,,,,,,,,,,,,,,,,
147323,1529697967376,1.28,1.38,1.26,1.2,,,,,,,,0,4.6,,,,,,,1.3,,,,,,,,,,,,,,,,,
147343,1529697967396,1.29,1.38,1.25,1.2,,0.03,-0.01,-1.02,-0,-0,0,0,4.5,4.02,,100,22.01,33,,1.3,,,,,,,,,,,,,,,,,
147363,1529697967404,1.28,1.38,1.25,1.2,,,,,,,,0,4.5,,,,,,,1.3,,,40.845962,-96.770599,0.0,0.002,1192.7,8,3,1.8,0,0.0,-1,0.0,0.0,0.0,0
147383,1529697967424,1.28,1.38,1.25,1.2,,0.03,-0.01,-1.01,-0,0,0,0,4.6,4.02,,100,22.01,33,,1.3,,,,,,,,,,,,,,,,,
147403,1529697967444,1.28,1.37,1.25,1.2,,,,,,,,0,4.6,,,,,,,1.3,,,,,,,,,,,,,,,,,
147423,1529697967464,1.28,1.38,1.25,1.2,,0.02,-0.01,-1.03,-0,-0,0,0,4.6,4.02,,100,22.01,33,,1.3,,,,,,,,,,,,,,,,,
147443,1529697967484,1.28,1.38,1.25,1.2,,,,,,,,0,4.6,,,,,,,1.3,,,,,,,,,,,,,,,,,
147463,1529697967506,1.28,1.38,1.25,1.2,,0.02,-0.01,-1.02,-0,-0,0,0,4.6,5.08,,100,22.01,33,,2.15,,,40.845962,-96.770599,0.0,0.002,1192.7,8,3,1.8,0,0.0,-1,0.0,0.0,0.0,0
147483,1529697967526,1.28,1.38,1.25,1.2,,,,,,,,0,4.6,,,,,,,2.15,,,,,,,,,,,,,,,,,
147503,1529697967546,1.28,1.37,1.25,1.2,,0.02,-0.01,-1.02,-0,0,0,0,4.6,5.08,,99,22.01,33,,2.15,,,,,,,,,,,,,,,,,
147523,1529697967566,1.28,1.38,1.25,1.2,,,,,,,,0,4.6,,,,,,,2.15,,,,,,,,,,,,,,,,,
147543,1529697967594,1.28,1.38,1.25,1.2,,0.02,-0.01,-1.05,-0,-0,0,0,4.6,5.08,,100,22.01,33,,2.15,,,,,,,,,,,,,,,,,
147563,1529697967614,1.28,1.38,1.25,1.2,,,,,,,,0,4.6,,,,,,,1.95,,,40.845962,-96.770599,0.0,0.002,1192.7,8,3,1.8,0,0.0,-1,0.0,0.0,0.0,0
147583,1529697967634,1.28,1.38,1.25,1.2,,0.02,-0.01,-1.07,-0,-0,0,0,4.6,5.08,,100,22.01,33,,1.95,,,,,,,,,,,,,,,,,
147603,1529697967654,1.28,1.37,1.25,1.2,,,,,,,,0,4.6,,,,,,,1.95,,,,,,,,,,,,,,,,,
147623,1529697967674,1.28,1.38,1.25,1.2,,0.02,-0.01,-1.06,-0,-0,0,0,4.6,5.08,,100,22.01,33,,1.95,,,,,,,,,,,,,,,,,
147643,1529697967698,1.28,1.38,1.25,1.2,,,,,,,,0,4.6,,,,,,,1.95,,,,,,,,,,,,,,,,,
147663,1529697967718,1.28,1.38,1.25,1.2,,0.02,-0.0,-1.06,-0,-0,0,0,4.6,4.96,,100,22.01,33,,2.15,,,40.845962,-96.770599,0.0,0.002,1192.7,8,3,1.8,0,0.0,-1,0.0,0.0,0.0,0
147683,1529697967738,1.28,1.37,1.25,1.2,,,,,,,,0,4.7,,,,,,,2.15,,,,,,,,,,,,,,,,,
147703,1529697967758,1.28,1.37,1.25,1.2,,0.02,-0.0,-1.06,-0,-0,0,0,4.7,4.96,,100,22.01,33,,2.15,,,,,,,,,,,,,,,,,
147723,1529697967778,1.28,1.37,1.25,1.2,,,,,,,,0,4.7,,,,,,,2.15,,,,,,,,,,,,,,,,,
147743,1529697967798,1.28,1.38,1.25,1.2,,0.02,-0.01,-1.06,-0,-0,0,0,4.7,4.95,,100,22.01,33,,2.15,,,,,,,,,,,,,,,,,
147763,1529697967804,1.28,1.37,1.25,1.2,,,,,,,,0,4.7,,,,,,,2.15,,,40.845962,-96.770599,0.0,0.002,1192.7,8,3,1.8,0,0.0,-1,0.0,0.0,0.0,0
147783,1529697967824,1.28,1.38,1.25,1.2,,0.02,-0.01,-1.04,-0,-0,0,0,8.4,4.95,,100,22.01,33,,2.15,,,,,,,,,,,,,,,,,
147803,1529697967844,1.28,1.37,1.25,1.2,,,,,,,,0,8.4,,,,,,,2.15,,,,,,,,,,,,,,,,,
147823,1529697967864,1.28,1.38,1.25,1.2,,0.03,-0.02,-1.04,-0,-0,0,0,8.4,4.95,,100,22.01,33,,2.15,,,,,,,,,,,,,,,,,
147843,1529697967884,1.28,1.37,1.25,1.19,,,,,,,,0,10.5,,,,,,,2.15,,,,,,,,,,,,,,,,,
147863,1529697967910,1.28,1.37,1.25,1.2,,0.04,-0.02,-1.04,-0,0,0,0,10.5,4.95,,100,22.01,33,,2.3,,,40.845962,-96.770599,0.0,0.002,1192.7,8,3,1.8,0,0.0,-1,0.0,0.0,0.0,0
147883,1529697967930,1.28,1.37,1.25,1.2,,,,,,,,424,10.5,,,,,,,2.3,,,,,,,,,,,,,,,,,
147903,1529697967950,1.28,1.38,1.25,1.2,,0.04,-0.01,-1.03,-0,0,0,424,10.5,5.18,,100,22.01,33,,2.3,,,,,,,,,,,,,,,,,
147923,1529697967970,1.28,1.37,1.25,1.2,,,,,,,,424,10.5,,,,,,,2.3,,,,,,,,,,,,,,,,,
147943,1529697967992,1.28,1.37,1.25,1.2,,0.04,-0.01,-1.05,-0,-0,0,995,9.6,4.19,,99,22.01,33,,2.3,,,,,,,,,,,,,,,,,
147963,1529697968012,1.28,1.38,1.25,1.2,,,,,,,,995,9.6,,,,,,,7.92,,,40.845962,-96.770599,0.0,0.002,1192.7,8,3,1.8,0,0.0,-1,0.0,0.0,0.0,0
147983,1529697968032,1.28,1.37,1.25,1.2,,0.05,-0.0,-1.02,0,0,0,1349,4.2,3.16,,99,22.01,33,,7.92,,,,,,,,,,,,,,,,,
148003,1529697968052,1.28,1.37,1.25,1.19,,,,,,,,1349,4.2,,,,,,,7.92,,,,,,,,,,,,,,,,,
148023,1529697968072,1.28,1.37,1.25,1.2,,0.03,-0.01,-1.04,0,0,0,1349,4.2,3.16,,97,22.01,33,,7.92,,,,,,,,,,,,,,,,,
148043,1529697968098,1.28,1.37,1.25,1.2,,,,,,,,1272,4.0,,,,,,,7.92,,,,,,,,,,,,,,,,,
148063,1529697968118,1.28,1.37,1.25,1.2,12.71,0.03,-0.01,-1.06,0,-0,0,1272,4.0,3.47,70,96,22.01,33,83,9.15,79,32,40.845962,-96.770599,0.0,0.002,1192.7,8,3,1.8,0,0.0,-1,0.0,0.0,0.0,0
148083,1529697968138,1.28,1.38,1.25,1.2,,,,,,,,1288,5.1,,,,,,,9.15,,,,,,,,,,,,,,,,,
148103,1529697968158,1.28,1.38,1.25,1.2,,0.05,-0.02,-1.02,0,-0,0,1288,5.1,3.88,,95,22.01,33,,9.15,,,,,,,,,,,,,,,,,
148123,1529697968178,1.28,1.38,1.25,1.19,,,,,,,,1288,5.1,,,,,,,9.15,,,,,,,,,,,,,,,,,
148143,1529697968198,1.28,1.37,1.25,1.19,,0.07,0.0,-0.95,0,-0,-0,1451,7.8,4.23,,97,22.01,33,,9.15,,,,,,,,,,,,,,,,,
148163,1529697968199,1.28,1.37,1.25,1.2,,,,,,,,1451,7.8,,,,,,,10.72,,,40.845962,-96.770599,0.0,0.002,1192.7,8,3,1.8,0,0.0,-1,0.0,0.0,0.0,0
148183,1529697968219,1.28,1.38,1.25,1.19,,0.08,0.01,-0.94,0,0,0,1464,11.3,4.22,,97,22.01,33,,10.72,,,,,,,,,,,,,,,,,
148203,1529697968239,1.28,1.37,1.25,1.2,,,,,,,,1464,11.3,,,,,,,10.72,,,,,,,,,,,,,,,,,
148223,1529697968259,1.28,1.37,1.25,1.19,,0.06,0.0,-0.94,0,0,0,1464,11.3,4.22,,97,22.01,33,,10.72,,,,,,,,,,,,,,,,,
148243,1529697968279,1.28,1.37,1.25,1.2,,,,,,,,1398,14.9,,,,,,,10.72,,,,,,,,,,,,,,,,,
148263,1529697968307,1.28,1.37,1.25,1.19,,0.01,-0.03,-0.94,0,0,1,1398,14.9,4.43,,98,22.01,33,,9.83,,,40.845962,-96.770599,0.0,0.002,1192.7,8,3,1.8,0,0.0,-1,0.0,0.0,0.0,0
148283,1529697968327,1.28,1.38,1.25,1.2,,,,,,,,1573,16.8,,,,,,,9.83,,,,,,,,,,,,,,,,,
148303,1529697968347,1.28,1.37,1.25,1.19,,-0.02,-0.04,-0.92,0,0,1,1573,16.8,4.44,,98,22.01,33,,9.83,,,,,,,,,,,,,,,,,
148323,1529697968367,1.28,1.37,1.25,1.19,,,,,,,,1573,16.8,,,,,,,9.83,,,,,,,,,,,,,,,,,
148343,1529697968387,1.28,1.38,1.25,1.19,,-0.0,-0.02,-0.92,0,-0,0,1652,15.4,4.47,,98,22.01,33,,9.83,,,,,,,,,,,,,,,,,
148363,1529697968407,1.28,1.37,1.25,1.2,,,,,,,,1652,15.4,,,,,,,11.88,,,40.845962,-96.770599,0.0,0.002,1192.7,8,3,1.8,0,0.0,-1,0.0,0.0,0.0,0
148383,1529697968427,1.27,1.37,1.25,1.2,,-0.01,-0.04,-0.95,0,-0,0,1687,10.2,3.27,,98,22.01,33,,11.88,,,,,,,,,,,,,,,,,
148403,1529697968447,1.28,1.38,1.25,1.19,,,,,,,,1687,10.2,,,,,,,11.88,,,,,,,,,,,,,,,,,
148423,1529697968467,1.28,1.37,1.25,1.19,,0.0,-0.05,-0.97,0,-0,0,1687,10.2,3.27,,96,22.01,33,,11.88,,,,,,,,,,,,,,,,,
148443,1529697968495,1.28,1.37,1.25,1.19,,,,,,,,1578,10.1,,,,,,,11.88,,,,,,,,,,,,,,,,,
148463,1529697968515,1.28,1.37,1.25,1.19,,0.02,-0.04,-0.98,0,-0,0,1578,10.1,3.65,,96,22.01,33,,10.85,,,40.845962,-96.770599,0.0,0.002,1192.7,8,3,1.8,0,0.0,-1,0.0,0.0,0.0,0
148483,1529697968535,1.28,1.37,1.25,1.19,,,,,,,,1460,10.1,,,,,,,10.85,,,,,,,,,,,,,,,,,
148503,1529697968555,1.28,1.37,1.25,1.2,,0.04,-0.03,-0.99,0,0,-0,1460,10.1,3.89,,97,22.01,33,,10.85,,,,,,,,,,,,,,,,,
148523,1529697968575,1.28,1.37,1.25,1.19,,,,,,,,1460,10.1,,,,,,,10.85,,,,,,,,,,,,,,,,,
148543,1529697968597,1.28,1.37,1.24,1.19,,0.05,-0.01,-1.01,0,0,-0,1535,10.6,4.18,,96,22.01,33,,10.85,,,,,,,,,,,,,,,,,
148563,1529697968617,1.27,1.37,1.24,1.19,,,,,,,,1535,10.6,,,,,,,10.1,,,40.845962,-96.770599,0.0,0.002,1192.7,8,3,1.8,0,0.0,-1,0.0,0.0,0.0,0
148583,1529697968637,1.28,1.37,1.25,1.19,,0.04,-0.01,-1.0,-0,-0,-0,1493,12.9,4.19,,96,22.01,33,,10.1,,,,,,,,,,,,,,,,,
148603,1529697968657,1.27,1.37,1.25,1.19,,,,,,,,1493,12.9,,,,,,,10.1,,,,,,,,,,,,,,,,,
148623,1529697968677,1.28,1.37,1.24,1.19,,0.05,-0.0,-1.0,-0,0,-1,1493,12.9,4.19,,97,22.01,33,,10.1,,,,,,,,,,,,,,,,,
148643,1529697968697,1.28,1.37,1.25,1.19,,,,,,,,1281,13.6,,,,,,,10.1,,,,,,,,,,,,,,,,,
148663,1529697968705,1.28,1.37,1.24,1.19,,0.03,-0.01,-0.99,-0,0,-0,1281,13.6,4.17,,98,22.01,33,,9.4,,,40.845962,-96.770599,0.0,0.002,1192.7,8,3,1.8,0,0.0,-1,0.0,0.0,0.0,0
148683,1529697968725,1.27,1.37,1.25,1.19,,,,,,,,1352,14.2,,,,,,,9.4,,,,,,,,,,,,,,,,,
148703,1529697968745,1.28,1.37,1.25,1.19,,0.02,-0.01,-0.97,-0,0,-0,1352,14.2,4.19,,98,22.01,33,,9.4,,,,,,,,,,,,,,,,,
148723,1529697968765,1.28,1.36,1.25,1.19,,,,,,,,1352,14.2,,,,,,,9.4,,,,,,,,,,,,,,,,,
148743,1529697968785,1.28,1.37,1.24,1.19,,0.02,-0.02,-0.98,-0,0,-0,1390,15.2,4.18,,97,22.01,33,,9.4,,,,,,,,,,,,,,,,,
148763,1529697968807,1.27,1.37,1.24,1.19,,,,,,,,1390,15.2,,,,,,,13.08,,,40.845962,-96.770599,0.0,0.002,1192.7,8,3,1.8,0,0.0,-1,0.0,0.0,0.0,0
148783,1529697968827,1.27,1.37,1.25,1.19,,0.01,-0.01,-0.99,-0,0,-0,1700,22.8,4.65,,97,22.01,33,,13.08,,,,,,,,,,,,,,,,,
148803,1529697968847,1.28,1.37,1.24,1.19,,,,,,,,1700,22.8,,,,,,,13.08,,,,,,,,,,,,,,,,,
148823,1529697968867,1.27,1.37,1.24,1.19,,0.03,0.0,-0.99,-0,-0,-0,1700,22.8,4.65,,97,22.01,33,,13.08,,,,,,,,,,,,,,,,,
148843,1529697968895,1.27,1.37,1.24,1.19,,,,,,,,1863,24.9,,,,,,,13.08,,,,,,,,,,,,,,,,,
148863,1529697968915,1.28,1.37,1.24,1.19,,0.08,0.0,-1.03,-0,-0,0,1863,24.9,4.5,,97,22.01,33,,16.4,,,40.845962,-96.770599,0.0,0.002,1192.7,8,3,1.8,0,0.0,-1,0.0,0.0,0.0,0
148883,1529697968935,1.28,1.37,1.25,1.19,,,,,,,,2371,25.3,,,,,,,16.4,,,,,,,,,,,,,,,,,
148903,1529697968955,1.28,1.37,1.24,1.19,,0.05,-0.02,-1.01,-0,0,-0,2371,25.3,4.59,,97,22.01,33,,16.4,,,,,,,,,,,,,,,,,
148923,1529697968975,1.28,1.37,1.24,1.19,,,,,,,,2371,25.3,,,,,,,16.4,,,,,,,,,,,,,,,,,
148943,1529697968995,1.27,1.37,1.24,1.19,,0.1,0.01,-1.01,-0,-0,-0,2634,10.6,2.49,,93,22.01,33,,16.4,,,,,,,,,,,,,,,,,
148963,1529697969015,1.27,1.37,1.24,1.19,,,,,,,,2634,10.6,,,,,,,26.12,,,40.845962,-96.770599,0.0,0.002,1192.7,8,3,1.8,0,0.0,-1,0.0,0.0,0.0,0
148983,1529697969035,1.28,1.37,1.24,1.19,,0.06,0.05,-0.95,-0,-0,-0,2886,5.4,2.8,,93,22.01,33,,26.12,,,,,,,,,,,,,,,,,
149003,1529697969055,1.28,1.37,1.24,1.19,,,,,,,,2886,5.4,,,,,,,26.12,,,,,,,,,,,,,,,,,
149023,1529697969075,1.28,1.37,1.24,1.19,,0.06,0.1,-0.99,-0,-0,-0,2886,5.4,2.8,,89,22.01,33,,26.12,,,,,,,,,,,,,,,,,
149043,1529697969095,1.28,1.37,1.24,1.19,,,,,,,,3182,5.2,,,,,,,26.12,,,,,,,,,,,,,,,,,
149063,1529697969107,1.28,1.37,1.25,1.19,13.43,0.04,0.07,-1.12,-0,-1,1,3182,5.2,3.62,70,83,22.01,33,83,32.03,79,32,40.845962,-96.770599,0.0,0.002,1192.7,8,3,1.8,0,0.0,-1,0.0,0.0,0.0,0
149083,1529697969127,1.28,1.37,1.24,1.19,,,,,,,,3543,5.0,,,,,,,32.03,,,,,,,,,,,,,,,,,
149103,1529697969147,1.28,1.38,1.25,1.19,,0.03,0.04,-1.09,-0,-0,1,3543,5.0,4.29,,78,22.01,33,,32.03,,,,,,,,,,,,,,,,,
149123,1529697969167,1.28,1.37,1.24,1.19,,,,,,,,3543,5.0,,,,,,,32.03,,,,,,,,,,,,,,,,,
149143,1529697969194,1.28,1.37,1.25,1.19,,0.06,-0.03,-1.03,-0,-0,0,3957,5.1,4.16,,76,22.01,33,,32.03,,,,,,,,,,,,,,,,,
149163,1529697969214,1.28,1.37,1.25,1.19,,,,,,,,3957,5.1,,,,,,,44.7,,,40.845962,-96.770599,0.0,0.002,1192.7,8,3,1.8,0,0.0,-1,0.0,0.0,0.0,0
149183,1529697969234,1.28,1.37,1.25,1.2,,0.11,0.01,-0.98,-0,0,-0,3937,5.3,4.08,,76,22.01,33,,44.7,,,,,,,,,,,,,,,,,
149203,1529697969254,1.28,1.37,1.25,1.19,,,,,,,,3937,5.3,,,,,,,44.7,,,,,,,,,,,,,,,,,
149223,1529697969274,1.28,1.37,1.25,1.2,,0.12,0.05,-1.05,-0,0,-0,3937,5.3,4.08,,74,22.01,33,,44.7,,,,,,,,,,,,,,,,,
149243,1529697969294,1.28,1.38,1.25,1.2,,,,,,,,3798,5.2,,,,,,,44.7,,,,,,,,,,,,,,,,,
149263,1529697969306,1.29,1.37,1.25,1.2,,0.08,0.05,-1.07,-0,-0,-0,3798,5.2,4.03,,74,22.01,33,,40.4,,,40.845962,-96.770599,0.0,0.002,1192.7,8,3,1.8,0,0.0,-1,0.0,0.0,0.0,0
149283,1529697969326,1.28,1.37,1.25,1.2,,,,,,,,3705,4.7,,,,,,,40.4,,,,,,,,,,,,,,,,,
149303,1529697969346,1.29,1.38,1.25,1.2,,0.05,0.01,-1.05,-0,0,-0,3705,4.7,3.92,,73,22.01,33,,40.4,,,,,,,,,,,,,,,,,
149323,1529697969366,1.28,1.38,1.25,1.2,,,,,,,,3705,4.7,,,,,,,40.4,,,,,,,,,,,,,,,,,
149343,1529697969394,1.29,1.38,1.25,1.2,,0.05,-0.03,-1.05,-0,0,0,3594,4.5,3.91,,72,22.01,33,,40.4,,,,,,,,,,,,,,,,,
149363,1529697969414,1.28,1.38,1.25,1.2,,,,,,,,3594,4.5,,,,,,,36.03,,,40.845962,-96.770599,0.0,0.002,1192.7,8,3,1.8,0,0.0,-1,0.0,0.0,0.0,0
149383,1529697969434,1.28,1.38,1.25,1.21,,0.05,0.0,-1.11,0,-0,0,3556,4.7,3.87,,72,22.01,33,,36.03,,,,,,,,,,,,,,,,,
149403,1529697969454,1.29,1.38,1.25,1.2,,,,,,,,3556,4.7,,,,,,,36.03,,,,,,,,,,,,,,,,,
149423,1529697969474,1.29,1.38,1.26,1.2,,0.06,0.03,-1.05,-0,0,-0,3556,4.7,3.87,,71,22.01,33,,36.03,,,,,,,,,,,,,,,,,
149443,1529697969494,1.29,1.38,1.26,1.21,,,,,,,,3527,10.2,,,,,,,36.03,,,,,,,,,,,,,,,,,
149463,1529697969506,1.29,1.38,1.26,1.21,,0.05,-0.0,-0.97,-0,0,-0,3527,10.2,4.13,,73,22.01,33,,38.12,,,40.845962,-96.770599,0.0,0.002,1192.7,8,3,1.8,0,0.0,-1,0.0,0.0,0.0,0
149483,1529697969526,1.29,1.38,1.26,1.21,,,,,,,,3646,13.5,,,,,,,38.12,,,,,,,,,,,,,,,,,
149503,1529697969546,1.29,1.38,1.26,1.21,,0.02,-0.02,-0.92,-0,0,0,3646,13.5,4.25,,75,22.01,33,,38.12,,,,,,,,,,,,,,,,,
149523,1529697969566,1.29,1.38,1.26,1.2,,,,,,,,3646,13.5,,,,,,,38.12,,,,,,,,,,,,,,,,,
149543,1529697969592,1.29,1.38,1.26,1.21,,0.04,-0.02,-0.98,-0,0,0,3767,13.8,4.31,,77,22.01,33,,38.12,,,,,,,,,,,,,,,,,
149563,1529697969612,1.29,1.38,1.25,1.21,,,,,,,,3767,13.8,,,,,,,40.5,,,40.845962,-96.770599,0.0,0.002,1192.7,8,3,1.8,0,0.0,-1,0.0,0.0,0.0,0
149583,1529697969632,1.29,1.38,1.26,1.21,,0.04,0.02,-1.04,-0,0,0,3828,13.3,4.31,,77,22.01,33,,40.5,,,,,,,,,,,,,,,,,
149603,1529697969652,1.29,1.38,1.26,1.21,,,,,,,,3828,13.3,,,,,,,40.5,,,,,,,,,,,,,,,,,
149623,1529697969672,1.29,1.38,1.26,1.21,,0.03,0.04,-1.15,-0,-0,0,3828,13.3,4.31,,77,22.01,32,,40.5,,,,,,,,,,,,,,,,,
149643,1529697969692,1.29,1.38,1.26,1.21,,,,,,,,3867,3.8,,,,,,,40.5,,,,,,,,,,,,,,,,,
149663,1529697969706,1.29,1.39,1.26,1.21,,-0.01,0.04,-1.15,-0,-0,1,3867,3.8,3.1,,75,22.01,32,,40.15,,,40.845962,-96.770599,0.0,0.002,1192.7,8,3,1.8,0,0.0,-1,0.0,0.0,0.0,0
149683,1529697969726,1.29,1.38,1.26,1.21,,,,,,,,3829,2.9,,,,,,,40.15,,,,,,,,,,,,,,,,,
149703,1529697969746,1.29,1.39,1.26,1.21,,-0.01,0.05,-1.06,-0,-0,1,3829,2.9,3.24,,72,22.01,32,,40.15,,,,,,,,,,,,,,,,,
149723,1529697969766,1.29,1.39,1.26,1.21,,,,,,,,3829,2.9,,,,,,,40.15,,,,,,,,,,,,,,,,,
149743,1529697969792,1.29,1.39,1.26,1.21,,0.01,0.03,-1.0,-0,-0,1,3770,2.9,3.51,,71,22.01,32,,40.15,,,,,,,,,,,,,,,,,
149763,1529697969812,1.29,1.39,1.26,1.21,,,,,,,,3770,2.9,,,,,,,40.42,,,40.845962,-96.770599,0.0,0.002,1192.7,8,3,1.8,0,0.0,-1,0.0,0.0,0.0,0
149783,1529697969832,1.3,1.39,1.27,1.21,,0.06,0.04,-1.0,-0,-0,1,3675,2.9,3.75,,71,22.01,32,,40.42,,,,,,,,,,,,,,,,,
149803,1529697969852,1.29,1.39,1.27,1.21,,,,,,,,3675,2.9,,,,,,,40.42,,,,,,,,,,,,,,,,,
149823,1529697969872,1.29,1.39,1.26,1.21,,0.06,0.01,-0.97,-0,-0,1,3675,2.9,3.75,,70,22.01,32,,40.42,,,,,,,,,,,,,,,,,
149843,1529697969892,1.29,1.39,1.26,1.21,,,,,,,,3547,3.3,,,,,,,40.42,,,,,,,,,,,,,,,,,
149863,1529697969902,1.3,1.39,1.27,1.22,,0.04,-0.04,-0.97,-0,-0,1,3547,3.3,3.7,,69,22.01,32,,36.83,,,40.845962,-96.770599,0.0,0.002,1192.7,8,3,1.8,0,0.0,-1,0.0,0.0,0.0,0
149883,1529697969922,1.3,1.39,1.26,1.22,,,,,,,,3460,3.4,,,,,,,36.83,,,,,,,,,,,,,,,,,
149903,1529697969942,1.29,1.4,1.27,1.22,,0.04,0.04,-1.06,-0,-0,1,3460,3.4,3.7,,69,22.01,32,,36.83,,,,,,,,,,,,,,,,,
149923,1529697969962,1.29,1.4,1.27,1.22,,,,,,,,3460,3.4,,,,,,,36.83,,,,,,,,,,,,,,,,,
149943,1529697969982,1.3,1.4,1.27,1.22,,0.06,-0.04,-0.92,-0,0,1,3402,4.0,3.68,,69,22.01,32,,36.83,,,,,,,,,,,,,,,,,
149963,1529697970010,1.3,1.39,1.27,1.22,,,,,,,,3402,4.0,,,,,,,33.45,,,40.845962,-96.770599,0.0,0.002,1192.7,8,3,1.8,0,0.0,-1,0.0,0.0,0.0,0
149983,1529697970030,1.3,1.39,1.27,1.22,,0.07,0.07,-1.1,-0,-0,1,3307,5.1,3.7,,69,22.01,32,,33.45,,,,,,,,,,,,,,,,,
150003,1529697970050,1.3,1.39,1.27,1.23,,,,,,,,3307,5.1,,,,,,,33.45,,,,,,,,,,,,,,,,,
150023,1529697970070,1.3,1.4,1.27,1.23,,0.04,-0.05,-1.09,-0,-0,1,3307,5.1,3.7,,70,22.01,32,,33.45,,,,,,,,,,,,,,,,,
150043,1529697970090,1.31,1.4,1.28,1.24,,,,,,,,3178,7.8,,,,,,,33.45,,,,,,,,,,,,,,,,,
150063,1529697970099,1.31,1.4,1.28,1.24,13.45,0.03,-0.09,-0.97,-0,0,1,3178,7.8,3.9,70,73,22.01,32,83,30.78,79,32,40.845962,-96.770599,0.0,0.002,1192.7,8,3,1.8,0,0.0,-1,0.0,0.0,0.0,0
150083,1529697970119,1.31,1.4,1.28,1.24,,,,,,,,2988,10.9,,,,,,,30.78,,,,,,,,,,,,,,,,,
150103,1529697970139,1.31,1.41,1.28,1.24,,0.01,-0.09,-0.92,-0,1,1,2988,10.9,4.31,,78,22.01,32,,30.78,,,,,,,,,,,,,,,,,
150123,1529697970159,1.31,1.41,1.28,1.24,,,,,,,,2988,10.9,,,,,,,30.78,,,,,,,,,,,,,,,,,
150143,1529697970179,1.31,1.41,1.28,1.23,,-0.01,-0.08,-0.99,-0,1,1,2708,11.0,4.41,,82,22.01,32,,30.78,,,,,,,,,,,,,,,,,
150163,1529697970207,1.31,1.41,1.28,1.23,,,,,,,,2708,11.0,,,,,,,24.25,,,40.845962,-96.770599,0.0,0.002,1192.7,8,3,1.8,0,0.0,-1,0.0,0.0,0.0,0
150183,1529697970227,1.31,1.41,1.28,1.23,,0.01,-0.06,-0.94,-0,1,1,2508,11.0,4.39,,82,22.01,32,,24.25,,,,,,,,,,,,,,,,,
150203,1529697970247,1.31,1.41,1.28,1.24,,,,,,,,2508,11.0,,,,,,,24.25,,,,,,,,,,,,,,,,,
150223,1529697970267,1.31,1.41,1.28,1.23,,0.02,-0.03,-0.91,-0,0,0,2508,11.0,4.39,,84,22.01,32,,24.25,,,,,,,,,,,,,,,,,
150243,1529697970295,1.31,1.41,1.28,1.23,,,,,,,,2302,11.0,,,,,,,24.25,,,,,,,,,,,,,,,,,
150263,1529697970315,1.31,1.41,1.28,1.23,,0.02,-0.02,-0.94,0,0,0,2302,11.0,4.25,,87,22.01,32,,19.62,,,40.845962,-96.770599,0.0,0.002,1192.7,8,3,1.8,0,0.0,-1,0.0,0.0,0.0,0
150283,1529697970335,1.31,1.41,1.29,1.22,,,,,,,,2201,10.7,,,,,,,19.62,,,,,,,,,,,,,,,,,
150303,1529697970355,1.31,1.41,1.28,1.23,,0.02,-0.02,-0.96,0,0,-0,2201,10.7,4.23,,89,22.01,32,,19.62,,,,,,,,,,,,,,,,,
150323,1529697970375,1.31,1.41,1.29,1.23,,,,,,,,2201,10.7,,,,,,,19.62,,,,,,,,,,,,,,,,,
150343,1529697970395,1.31,1.41,1.28,1.23,,0.02,-0.01,-0.98,0,0,-0,2094,10.5,4.33,,91,22.01,32,,19.62,,,,,,,,,,,,,,,,,
150363,1529697970405,1.3,1.41,1.28,1.23,,,,,,,,2094,10.5,,,,,,,16.58,,,40.845962,-96.770599,0.0,0.002,1192.7,8,3,1.8,0,0.0,-1,0.0,0.0,0.0,0
150383,1529697970425,1.31,1.41,1.28,1.23,,0.03,-0.01,-0.96,0,0,-0,1916,10.6,4.25,,91,22.01,32,,16.58,,,,,,,,,,,,,,,,,
150403,1529697970445,1.31,1.41,1.28,1.23,,,,,,,,1916,10.6,,,,,,,16.58,,,,,,,,,,,,,,,,,
150423,1529697970465,1.31,1.41,1.28,1.23,,0.04,0.0,-0.96,0,0,-0,1916,10.6,4.25,,92,22.01,32,,16.58,,,,,,,,,,,,,,,,,
150443,1529697970495,1.31,1.41,1.28,1.23,,,,,,,,1767,10.7,,,,,,,16.58,,,,,,,,,,,,,,,,,
150463,1529697970515,1.31,1.41,1.28,1.23,,0.03,-0.01,-1.02,0,0,-0,1767,10.7,4.21,,94,22.01,32,,13.25,,,40.845962,-96.770599,0.0,0.002,1192.7,8,3,1.8,0,0.0,-1,0.0,0.0,0.0,0
150483,1529697970535,1.31,1.41,1.28,1.23,,,,,,,,1702,13.7,,,,,,,13.25,,,,,,,,,,,,,,,,,
150503,1529697970555,1.31,1.41,1.28,1.23,,0.03,0.02,-1.05,1,0,0,1702,13.7,4.18,,96,22.01,32,,13.25,,,,,,,,,,,,,,,,,
150523,1529697970575,1.31,1.41,1.28,1.23,,,,,,,,1702,13.7,,,,,,,13.25,,,,,,,,,,,,,,,,,
150543,1529697970595,1.31,1.41,1.28,1.23,,-0.02,0.01,-1.04,1,0,0,1614,16.5,4.34,,98,22.01,32,,13.25,,,,,,,,,,,,,,,,,
150563,1529697970605,1.3,1.41,1.28,1.23,,,,,,,,1614,16.5,,,,,,,11.17,,,40.845962,-96.770599,0.0,0.002,1192.7,8,3,1.8,0,0.0,-1,0.0,0.0,0.0,0
150583,1529697970625,1.31,1.41,1.28,1.23,,-0.04,0.0,-1.02,1,0,0,1575,17.9,4.36,,98,22.01,32,,11.17,,,,,,,,,,,,,,,,,
150603,1529697970645,1.3,1.41,1.28,1.23,,,,,,,,1575,17.9,,,,,,,11.17,,,,,,,,,,,,,,,,,
150623,1529697970665,1.31,1.41,1.28,1.23,,-0.04,0.01,-1.02,1,0,1,1575,17.9,4.36,,98,22.01,32,,11.17,,,,,,,,,,,,,,,,,
150643,1529697970693,1.31,1.41,1.28,1.23,,,,,,,,1475,18.6,,,,,,,11.17,,,,,,,,,,,,,,,,,
150663,1529697970713,1.31,1.41,1.28,1.23,,-0.02,0.01,-1.02,1,0,0,1475,18.6,4.34,,98,22.01,32,,8.33,,,40.845962,-96.770599,0.0,0.002,1192.7,8,3,1.8,0,0.0,-1,0.0,0.0,0.0,0
150683,1529697970733,1.3,1.42,1.28,1.23,,,,,,,,1457,19.2,,,,,,,8.33,,,,,,,,,,,,,,,,,
150703,1529697970753,1.31,1.41,1.28,1.23,,0.0,0.01,-1.05,1,0,0,1457,19.2,4.27,,99,22.01,32,,8.33,,,,,,,,,,,,,,,,,
150723,1529697970773,1.31,1.41,1.28,1.23,,,,,,,,1457,19.2,,,,,,,8.33,,,,,,,,,,,,,,,,,
150743,1529697970793,1.31,1.41,1.28,1.23,,0.02,0.02,-1.03,1,0,-0,1647,19.5,4.27,,98,22.01,32,,8.33,,,,,,,,,,,,,,,,,
150763,1529697970805,1.3,1.41,1.28,1.23,,,,,,,,1647,19.5,,,,,,,12.0,,,40.845962,-96.770599,0.0,0.002,1192.7,8,3,1.8,0,0.0,-1,0.0,0.0,0.0,0
150783,1529697970825,1.31,1.41,1.28,1.23,,0.0,0.01,-1.04,1,0,-0,1605,21.0,4.29,,98,22.01,32,,12.0,,,,,,,,,,,,,,,,,
150803,1529697970845,1.3,1.41,1.28,1.23,,,,,,,,1605,21.0,,,,,,,12.0,,,,,,,,,,,,,,,,,
150823,1529697970865,1.31,1.41,1.28,1.23,,0.02,0.02,-1.05,1,-0,-0,1605,21.0,4.29,,98,22.01,32,,12.0,,,,,,,,,,,,,,,,,
150843,1529697970891,1.31,1.41,1.28,1.23,,,,,,,,1656,23.5,,,,,,,12.0,,,,,,,,,,,,,,,,,
150863,1529697970911,1.31,1.41,1.28,1.23,,0.02,0.02,-1.05,2,-0,-0,1656,23.5,4.26,,99,22.01,32,,11.7,,,40.845962,-96.770599,0.0,0.002,1192.7,8,3,1.8,0,0.0,-1,0.0,0.0,0.0,0
150883,1529697970931,1.31,1.41,1.28,1.23,,,,,,,,1583,26.2,,,,,,,11.7,,,,,,,,,,,,,,,,,
150903,1529697970951,1.3,1.41,1.28,1.23,,0.01,-0.03,-1.06,2,0,-0,1583,26.2,4.29,,99,22.01,32,,11.7,,,,,,,,,,,,,,,,,
150923,1529697970971,1.3,1.41,1.28,1.23,,,,,,,,1583,26.2,,,,,,,11.7,,,,,,,,,,,,,,,,,
150943,1529697970991,1.3,1.41,1.28,1.23,,0.01,-0.05,-1.01,2,0,-0,1608,26.5,4.29,,98,22.01,32,,11.7,,,,,,,,,,,,,,,,,
150963,1529697971003,1.3,1.41,1.28,1.23,,,,,,,,1608,26.5,,,,,,,11.6,,,40.845962,-96.770599,0.0,0.002,1192.7,8,3,1.8,0,0.0,-1,0.0,0.0,0.0,0
150983,1529697971023,1.3,1.41,1.28,1.23,,0.0,-0.04,-0.99,2,0,-0,1463,27.2,4.29,,98,22.01,32,,11.6,,,,,,,,,,,,,,,,,
151003,1529697971043,1.31,1.41,1.28,1.22,,,,,,,,1463,27.2,,,,,,,11.6,,,,,,,,,,,,,,,,,
151023,1529697971063,1.31,1.41,1.28,1.22,,-0.01,-0.04,-0.99,2,0,-0,1463,27.2,4.29,,99,22.01,32,,11.6,,,,,,,,,,,,,,,,,
151043,1529697971083,1.31,1.41,1.27,1.23,,,,,,,,1398,27.1,,,,,,,11.6,,,,,,,,,,,,,,,,,
151063,1529697971108,1.3,1.41,1.28,1.23,13.35,-0.03,-0.06,-1.01,2,0,-0,1398,27.1,4.24,70,99,22.01,32,83,11.65,79,32,40.845962,-96.770599,0.0,0.002,1192.7,8,3,1.8,0,0.0,-1,0.0,0.0,0.0,0
151083,1529697971128,1.3,1.41,1.28,1.23,,,,,,,,1627,27.1,,,,,,,11.65,,,,,,,,,,,,,,,,,
151103,1529697971148,1.31,1.41,1.28,1.23,,0.0,-0.03,-1.05,2,0,-0,1627,27.1,4.31,,99,22.01,32,,11.65,,,,,,,,,,,,,,,,,
151123,1529697971168,1.3,1.41,1.28,1.23,,,,,,,,1627,27.1,,,,,,,11.65,,,,,,,,,,,,,,,,,
151143,1529697971188,1.31,1.41,1.27,1.23,,-0.02,-0.01,-1.08,2,0,-0,1665,27.7,4.31,,99,22.01,32,,11.65,,,,,,,,,,,,,,,,,
151163,1529697971202,1.3,1.41,1.28,1.22,,,,,,,,1665,27.7,,,,,,,11.97,,,40.845962,-96.770599,0.0,0.002,1192.7,8,3,1.8,0,0.0,-1,0.0,0.0,0.0,0
151183,1529697971222,1.3,1.41,1.28,1.22,,-0.03,-0.01,-1.02,2,0,0,1672,27.7,4.3,,99,22.01,32,,11.97,,,,,,,,,,,,,,,,,
151203,1529697971242,1.31,1.41,1.28,1.22,,,,,,,,1672,27.7,,,,,,,11.97,,,,,,,,,,,,,,,,,
151223,1529697971262,1.3,1.41,1.28,1.23,,-0.01,0.01,-1.0,2,-0,0,1672,27.7,4.3,,98,22.01,32,,11.97,,,,,,,,,,,,,,,,,
151243,1529697971282,1.31,1.4,1.28,1.22,,,,,,,,1642,27.9,,,,,,,11.97,,,,,,,,,,,,,,,,,
151263,1529697971308,1.3,1.41,1.27,1.22,,-0.03,-0.02,-1.01,3,-0,0,1642,27.9,4.31,,99,22.01,32,,12.12,,,40.845962,-96.770599,0.0,0.002,1192.7,8,3,1.8,0,0.0,-1,0.0,0.0,0.0,0
151283,1529697971328,1.3,1.41,1.28,1.23,,,,,,,,1692,27.9,,,,,,,12.12,,,,,,,,,,,,,,,,,
151303,1529697971348,1.3,1.41,1.28,1.22,,-0.01,-0.04,-1.02,3,0,0,1692,27.9,4.29,,99,22.01,32,,12.12,,,,,,,,,,,,,,,,,
151323,1529697971368,1.3,1.41,1.28,1.22,,,,,,,,1692,27.9,,,,,,,12.12,,,,,,,,,,,,,,,,,
151343,1529697971388,1.31,1.41,1.27,1.22,,-0.01,-0.03,-0.99,3,0,0,1695,27.9,4.26,,98,22.01,32,,12.12,,,,,,,,,,,,,,,,,
151363,1529697971402,1.3,1.41,1.28,1.22,,,,,,,,1695,27.9,,,,,,,12.47,,,40.845962,-96.770599,0.0,0.002,1192.7,8,3,1.8,0,0.0,-1,0.0,0.0,0.0,0
151383,1529697971422,1.31,1.41,1.28,1.22,,0.0,-0.01,-0.99,3,0,-0,1695,27.8,4.26,,98,22.01,32,,12.47,,,,,,,,,,,,,,,,,
151403,1529697971442,1.3,1.41,1.28,1.22,,,,,,,,1695,27.8,,,,,,,12.47,,,,,,,,,,,,,,,,,
151423,1529697971462,1.3,1.41,1.27,1.22,,-0.01,-0.01,-0.98,3,0,0,1695,27.8,4.26,,98,22.01,32,,12.47,,,,,,,,,,,,,,,,,
151443,1529697971482,1.31,1.41,1.27,1.22,,,,,,,,2036,28.0,,,,,,,12.47,,,,,,,,,,,,,,,,,
151463,1529697971508,1.3,1.41,1.28,1.22,,-0.0,0.0,-1.04,3,-0,0,2036,28.0,4.3,,97,22.01,32,,21.15,,,40.845962,-96.770599,0.0,0.002,1192.7,8,3,1.8,0,0.0,-1,0.0,0.0,0.0,0
151483,1529697971528,1.3,1.41,1.28,1.23,,,,,,,,2621,27.8,,,,,,,21.15,,,,,,,,,,,,,,,,,
151503,1529697971548,1.31,1.41,1.27,1.22,,0.03,0.04,-1.04,3,-0,0,2621,27.8,4.54,,96,22.01,32,,21.15,,,,,,,,,,,,,,,,,
151523,1529697971568,1.3,1.41,1.28,1.22,,,,,,,,2621,27.8,,,,,,,21.15,,,,,,,,,,,,,,,,,
151543,1529697971588,1.3,1.41,1.27,1.22,,-0.02,0.05,-0.92,3,-0,0,2997,27.7,4.62,,94,22.01,32,,21.15,,,,,,,,,,,,,,,,,
151563,1529697971602,1.3,1.41,1.27,1.22,,,,,,,,2997,27.7,,,,,,,29.97,,,40.845962,-96.770599,0.0,0.002,1192.7,8,3,1.8,0,0.0,-1,0.0,0.0,0.0,0
151583,1529697971622,1.3,1.41,1.27,1.22,,-0.02,0.06,-1.03,4,0,0,3422,24.2,4.77,,94,22.01,32,,29.97,,,,,,,,,,,,,,,,,
151603,1529697971642,1.3,1.41,1.28,1.22,,,,,,,,3422,24.2,,,,,,,29.97,,,,,,,,,,,,,,,,,
151623,1529697971662,1.3,1.41,1.27,1.22,,0.0,0.03,-0.94,4,0,-0,3422,24.2,4.77,,91,22.01,32,,29.97,,,,,,,,,,,,,,,,,
151643,1529697971682,1.3,1.41,1.27,1.22,,,,,,,,4128,8.9,,,,,,,29.97,,,,,,,,,,,,,,,,,
151663,1529697971710,1.3,1.41,1.27,1.22,,-0.06,0.17,-1.14,4,-1,0,4128,8.9,3.15,,84,22.01,32,,48.5,,,40.845962,-96.770599,0.0,0.002,1192.7,8,3,1.8,0,0.0,-1,0.0,0.0,0.0,0
151683,1529697971730,1.31,1.41,1.28,1.22,,,,,,,,4418,7.9,,,,,,,48.5,,,,,,,,,,,,,,,,,
151703,1529697971750,1.31,1.41,1.28,1.22,,-0.02,0.18,-1.04,4,0,-1,4418,7.9,3.66,,82,22.01,32,,48.5,,,,,,,,,,,,,,,,,
151723,1529697971770,1.31,1.41,1.28,1.22,,,,,,,,4418,7.9,,,,,,,48.5,,,,,,,,,,,,,,,,,
151743,1529697971800,1.3,1.41,1.27,1.22,,0.07,0.17,-0.99,4,1,-1,4424,7.2,4.07,,79,22.01,32,,48.5,,,,,,,,,,,,,,,,,
151763,1529697971820,1.31,1.41,1.28,1.22,,,,,,,,4424,7.2,,,,,,,48.85,,,40.84597,-96.770599,0.97,0.002,1189.8,8,3,1.8,0,0.0,-1,0.0,0.0,0.0,0
151783,1529697971840,1.3,1.41,1.27,1.22,,0.18,0.09,-1.0,4,1,-1,4302,8.7,4.45,,79,22.01,32,,48.85,,,,,,,,,,,,,,,,,
151803,1529697971860,1.3,1.41,1.28,1.23,,,,,,,,4302,8.7,,,,,,,48.85,,,,,,,,,,,,,,,,,
151823,1529697971880,1.3,1.41,1.28,1.23,,0.08,0.07,-1.04,4,-0,0,4302,8.7,4.45,,78,22.01,32,,48.85,,,,,,,,,,,,,,,,,
151843,1529697971900,1.31,1.41,1.28,1.23,,,,,,,,4175,11.7,,,,,,,48.85,,,,,,,,,,,,,,,,,
151863,1529697971908,1.31,1.41,1.28,1.23,,0.13,0.09,-0.96,4,0,0,4175,11.7,4.51,,79,22.01,32,,44.48,,,40.84597,-96.770599,1.04,0.002,1189.8,8,3,1.8,0,0.0,-1,0.0,0.0,0.0,0
151883,1529697971928,1.31,1.4,1.28,1.23,,,,,,,,4025,11.4,,,,,,,44.48,,,,,,,,,,,,,,,,,
151903,1529697971948,1.3,1.41,1.28,1.22,,0.05,0.09,-1.01,5,-0,1,4025,11.4,4.39,,79,22.01,32,,44.48,,,,,,,,,,,,,,,,,
151923,1529697971968,1.31,1.41,1.28,1.23,,,,,,,,4025,11.4,,,,,,,44.48,,,,,,,,,,,,,,,,,
151943,1529697971996,1.31,1.41,1.27,1.23,,0.08,0.02,-0.88,5,0,0,3964,11.2,4.39,,79,22.01,32,,44.48,,,,,,,,,,,,,,,,,
151963,1529697972016,1.31,1.41,1.28,1.23,,,,,,,,3964,11.2,,,,,,,41.88,,,40.84597,-96.770599,1.15,0.002,1189.9,8,3,1.8,0,0.0,-1,0.0,0.0,0.0,0
151983,1529697972036,1.31,1.41,1.28,1.23,,0.09,0.08,-0.88,5,0,0,3997,11.7,4.33,,79,22.01,32,,41.88,,,,,,,,,,,,,,,,,
152003,1529697972056,1.31,1.41,1.28,1.23,,,,,,,,3997,11.7,,,,,,,41.88,,,,,,,,,,,,,,,,,
152023,1529697972076,1.31,1.41,1.28,1.23,,0.04,0.06,-0.93,5,-1,1,3997,11.7,4.33,,79,22.01,32,,41.88,,,,,,,,,,,,,,,,,
152043,1529697972096,1.31,1.41,1.28,1.23,,,,,,,,3955,11.9,,,,,,,41.88,,,,,,,,,,,,,,,,,
152063,1529697972099,1.3,1.41,1.28,1.23,13.53,0.04,0.01,-0.79,5,-0,1,3955,11.9,4.28,70,80,22.01,32,83,41.3,79,32,40.84597,-96.770599,1.24,0.002,1189.9,8,3,1.8,0,0.0,-1,0.0,0.0,0.0,0
152083,1529697972119,1.31,1.42,1.28,1.23,,,,,,,,4002,11.9,,,,,,,41.3,,,,,,,,,,,,,,,,,
152103,1529697972139,1.31,1.41,1.28,1.23,,0.08,0.05,-0.82,5,-0,1,4002,11.9,4.29,,79,22.01,32,,41.3,,,,,,,,,,,,,,,,,
152123,1529697972159,1.31,1.41,1.28,1.23,,,,,,,,4002,11.9,,,,,,,41.3,,,,,,,,,,,,,,,,,
152143,1529697972179,1.31,1.41,1.28,1.23,,0.05,0.11,-0.95,6,-1,1,3995,12.7,4.26,,79,22.01,32,,41.3,,,,,,,,,,,,,,,,,
152163,1529697972209,1.31,1.41,1.28,1.23,,,,,,,,3995,12.7,,,,,,,42.15,,,40.84597,-96.770599,1.32,0.002,1189.9,8,3,1.8,0,0.0,-1,0.0,0.0,0.0,0
152183,1529697972229,1.31,1.42,1.28,1.23,,0.04,0.05,-0.95,6,-1,2,4014,14.1,4.29,,79,22.01,32,,42.15,,,,,,,,,,,,,,,,,
152203,1529697972249,1.31,1.42,1.28,1.24,,,,,,,,4014,14.1,,,,,,,42.15,,,,,,,,,,,,,,,,,
152223,1529697972269,1.31,1.42,1.28,1.23,,0.13,0.02,-0.88,6,-0,1,4014,14.1,4.29,,81,22.01,32,,42.15,,,,,,,,,,,,,,,,,
152243,1529697972295,1.31,1.42,1.28,1.24,,,,,,,,3997,14.2,,,,,,,42.15,,,,,,,,,,,,,,,,,
152263,1529697972315,1.31,1.42,1.28,1.24,,0.05,0.1,-1.02,7,-1,2,3997,14.2,4.32,,81,22.01,32,,42.42,,,40.84597,-96.770599,1.41,0.002,1189.9,8,3,1.8,0,0.0,-1,0.0,0.0,0.0,0
152283,1529697972335,1.31,1.42,1.29,1.24,,,,,,,,4023,14.7,,,,,,,42.42,,,,,,,,,,,,,,,,,
152303,1529697972355,1.32,1.42,1.28,1.23,,0.05,0.01,-0.94,7,-0,1,4023,14.7,4.32,,81,22.01,32,,42.42,,,,,,,,,,,,,,,,,
152323,1529697972375,1.31,1.42,1.28,1.24,,,,,,,,4023,14.7,,,,,,,42.42,,,,,,,,,,,,,,,,,
152343,1529697972395,1.32,1.42,1.29,1.24,,0.09,0.09,-0.95,7,-0,1,4064,14.6,4.4,,82,22.01,32,,42.42,,,,,,,,,,,,,,,,,
152363,1529697972405,1.32,1.42,1.28,1.24,,,,,,,,4064,14.6,,,,,,,43.48,,,40.84597,-96.770599,1.28,0.002,1189.8,8,3,1.8,0,0.0,-1,0.0,0.0,0.0,0
152383,1529697972425,1.32,1.42,1.29,1.24,,0.01,0.01,-0.99,8,-1,1,4121,14.2,4.42,,82,22.01,32,,43.48,,,,,,,,,,,,,,,,,
152403,1529697972445,1.32,1.42,1.29,1.24,,,,,,,,4121,14.2,,,,,,,43.48,,,,,,,,,,,,,,,,,
152423,1529697972465,1.32,1.43,1.29,1.24,,0.14,0.05,-0.96,8,-0,0,4121,14.2,4.42,,82,22.01,32,,43.48,,,,,,,,,,,,,,,,,
152443,1529697972495,1.31,1.42,1.29,1.24,,,,,,,,4123,14.5,,,,,,,43.48,,,,,,,,,,,,,,,,,
152463,1529697972515,1.32,1.42,1.29,1.24,,0.01,0.0,-0.99,9,-1,1,4123,14.5,4.42,,82,22.01,32,,44.55,,,40.84597,-96.770607,1.58,0.002,1189.8,8,3,1.8,0,0.0,-1,0.0,0.0,0.0,0
152483,1529697972535,1.32,1.42,1.29,1.24,,,,,,,,4117,14.7,,,,,,,44.55,,,,,,,,,,,,,,,,,
152503,1529697972555,1.32,1.43,1.29,1.24,,0.13,0.02,-0.96,9,0,0,4117,14.7,4.41,,82,22.01,32,,44.55,,,,,,,,,,,,,,,,,
152523,1529697972575,1.32,1.43,1.29,1.24,,,,,,,,4117,14.7,,,,,,,44.55,,,,,,,,,,,,,,,,,
152543,1529697972595,1.32,1.43,1.3,1.25,,0.02,0.01,-1.09,9,-1,1,4119,14.5,4.34,,82,22.01,32,,44.55,,,,,,,,,,,,,,,,,
152563,1529697972605,1.32,1.43,1.3,1.25,,,,,,,,4119,14.5,,,,,,,43.6,,,40.84597,-96.770607,1.51,0.002,1189.8,8,3,1.8,0,0.0,-1,0.0,0.0,0.0,0
152583,1529697972625,1.33,1.43,1.3,1.25,,0.12,-0.0,-0.91,9,0,0,4111,14.5,4.36,,82,22.01,32,,43.6,,,,,,,,,,,,,,,,,
152603,1529697972645,1.32,1.43,1.3,1.25,,,,,,,,4111,14.5,,,,,,,43.6,,,,,,,,,,,,,,,,,
152623,1529697972665,1.32,1.43,1.3,1.25,,-0.0,-0.02,-0.97,9,-0,1,4111,14.5,4.36,,82,22.01,31,,43.6,,,,,,,,,,,,,,,,,
152643,1529697972693,1.32,1.43,1.3,1.25,,,,,,,,4136,13.3,,,,,,,43.6,,,,,,,,,,,,,,,,,
152663,1529697972713,1.32,1.43,1.29,1.25,,0.04,0.02,-0.9,8,0,1,4136,13.3,4.37,,81,22.01,31,,46.4,,,40.84597,-96.770607,1.45,0.002,1189.8,8,3,1.8,0,0.0,-1,0.0,0.0,0.0,0
152683,1529697972733,1.33,1.43,1.3,1.26,,,,,,,,4162,12.1,,,,,,,46.4,,,,,,,,,,,,,,,,,
152703,1529697972753,1.33,1.43,1.3,1.25,,0.0,-0.08,-0.94,8,-0,1,4162,12.1,4.33,,81,22.01,31,,46.4,,,,,,,,,,,,,,,,,
152723,1529697972773,1.33,1.43,1.3,1.25,,,,,,,,4162,12.1,,,,,,,46.4,,,,,,,,,,,,,,,,,
152743,1529697972793,1.33,1.43,1.3,1.25,,0.03,0.05,-1.07,8,0,0,4142,12.0,4.28,,80,22.01,31,,46.4,,,,,,,,,,,,,,,,,
152763,1529697972799,1.33,1.43,1.3,1.26,,,,,,,,4142,12.0,,,,,,,45.2,,,40.84597,-96.770607,1.46,0.002,1189.8,8,3,1.8,0,0.0,-1,0.0,0.0,0.0,0
152783,1529697972819,1.33,1.44,1.3,1.25,,0.07,-0.05,-1.04,8,-0,0,4079,11.9,4.21,,80,22.01,31,,45.2,,,,,,,,,,,,,,,,,
152803,1529697972839,1.33,1.44,1.3,1.26,,,,,,,,4079,11.9,,,,,,,45.2,,,,,,,,,,,,,,,,,
152823,1529697972859,1.33,1.44,1.3,1.25,,0.13,0.02,-1.0,8,0,-0,4079,11.9,4.21,,81,22.01,31,,45.2,,,,,,,,,,,,,,,,,
152843,1529697972879,1.33,1.44,1.3,1.26,,,,,,,,4023,12.0,,,,,,,45.2,,,,,,,,,,,,,,,,,
152863,1529697972909,1.33,1.44,1.3,1.26,,0.04,0.04,-1.06,8,-0,0,4023,12.0,4.19,,80,22.01,31,,44.42,,,40.84597,-96.770607,1.62,0.003,1189.9,8,3,1.8,0,0.0,-1,0.0,0.0,0.0,0
152883,1529697972929,1.33,1.44,1.3,1.26,,,,,,,,4003,12.0,,,,,,,44.42,,,,,,,,,,,,,,,,,
152903,1529697972949,1.33,1.44,1.31,1.26,,0.1,-0.05,-0.94,8,-0,-0,4003,12.0,4.14,,79,22.01,31,,44.42,,,,,,,,,,,,,,,,,
152923,1529697972969,1.33,1.44,1.31,1.26,,,,,,,,4003,12.0,,,,,,,44.42,,,,,,,,,,,,,,,,,
152943,1529697972995,1.33,1.44,1.3,1.26,,0.11,0.04,-1.01,8,0,-1,4031,11.9,4.18,,80,22.01,31,,44.42,,,,,,,,,,,,,,,,,
152963,1529697973015,1.33,1.44,1.3,1.26,,,,,,,,4031,11.9,,,,,,,42.5,,,40.845974,-96.770607,1.71,0.003,1189.9,8,3,1.8,0,0.0,-1,0.0,0.0,0.0,0
152983,1529697973035,1.33,1.45,1.31,1.26,,0.05,-0.04,-1.03,8,-0,0,3997,11.8,4.12,,80,22.01,31,,42.5,,,,,,,,,,,,,,,,,
153003,1529697973055,1.34,1.44,1.31,1.26,,,,,,,,3997,11.8,,,,,,,42.5,,,,,,,,,,,,,,,,,
153023,1529697973075,1.34,1.45,1.31,1.26,,0.11,-0.07,-0.95,8,0,-0,3997,11.8,4.12,,80,22.01,31,,42.5,,,,,,,,,,,,,,,,,
153043,1529697973095,1.33,1.44,1.31,1.26,,,,,,,,3984,11.8,,,,,,,42.5,,,,,,,,,,,,,,,,,
153063,1529697973104,1.33,1.45,1.31,1.26,13.58,0.08,0.02,-1.06,8,1,-0,3984,11.8,4.1,70,80,22.01,31,83,42.27,79,32,40.845974,-96.770607,1.65,0.003,1189.9,8,3,1.8,0,0.0,-1,0.0,0.0,0.0,0
153083,1529697973124,1.34,1.45,1.31,1.26,,,,,,,,4020,11.9,,,,,,,42.27,,,,,,,,,,,,,,,,,
153103,1529697973144,1.34,1.45,1.31,1.27,,0.02,-0.03,-1.06,8,0,0,4020,11.9,4.07,,79,22.01,31,,42.27,,,,,,,,,,,,,,,,,
153123,1529697973164,1.33,1.45,1.31,1.27,,,,,,,,4020,11.9,,,,,,,42.27,,,,,,,,,,,,,,,,,
153143,1529697973184,1.34,1.45,1.31,1.27,,0.09,-0.08,-0.96,9,1,-0,3983,12.0,4.08,,80,22.01,31,,42.27,,,,,,,,,,,,,,,,,
153163,1529697973210,1.34,1.45,1.31,1.27,,,,,,,,3983,12.0,,,,,,,42.13,,,40.845974,-96.770607,1.69,0.003,1189.8,8,3,1.8,0,0.0,-1,0.0,0.0,0.0,0
153183,1529697973230,1.34,1.45,1.32,1.27,,0.1,-0.01,-1.04,8,1,-0,3968,12.0,4.09,,80,22.01,31,,42.13,,,,,,,,,,,,,,,,,
153203,1529697973250,1.34,1.45,1.31,1.27,,,,,,,,3968,12.0,,,,,,,42.13,,,,,,,,,,,,,,,,,
153223,1529697973270,1.34,1.45,1.32,1.27,,0.01,-0.03,-1.12,8,0,0,3968,12.0,4.09,,78,22.01,31,,42.13,,,,,,,,,,,,,,,,,
153243,1529697973290,1.34,1.45,1.31,1.27,,,,,,,,4020,11.9,,,,,,,42.13,,,,,,,,,,,,,,,,,
153263,1529697973302,1.34,1.45,1.32,1.27,,0.08,-0.08,-0.99,8,0,0,4020,11.9,4.03,,79,22.01,31,,41.33,,,40.845974,-96.770607,1.6,0.003,1189.7,8,3,1.8,0,0.0,-1,0.0,0.0,0.0,0
153283,1529697973322,1.34,1.46,1.32,1.27,,,,,,,,4017,12.0,,,,,,,41.33,,,,,,,,,,,,,,,,,
153303,1529697973342,1.34,1.45,1.32,1.27,,0.06,0.01,-1.07,8,0,-0,4017,12.0,4.04,,79,22.01,31,,41.33,,,,,,,,,,,,,,,,,
153323,1529697973362,1.34,1.45,1.31,1.27,,,,,,,,4017,12.0,,,,,,,41.33,,,,,,,,,,,,,,,,,
153343,1529697973382,1.34,1.45,1.32,1.27,,0.04,-0.02,-1.03,8,-0,1,3990,12.0,4.04,,79,22.01,31,,41.33,,,,,,,,,,,,,,,,,
153363,1529697973410,1.34,1.46,1.32,1.27,,,,,,,,3990,12.0,,,,,,,41.85,,,40.845974,-96.770607,1.67,0.003,1189.5,8,3,1.8,0,0.0,-1,0.0,0.0,0.0,0
153383,1529697973430,1.34,1.46,1.32,1.27,,0.11,-0.08,-0.91,8,0,0,4015,11.8,4.03,,79,22.01,31,,41.85,,,,,,,,,,,,,,,,,
153403,1529697973450,1.34,1.46,1.32,1.27,,,,,,,,4015,11.8,,,,,,,41.85,,,,,,,,,,,,,,,,,
153423,1529697973470,1.34,1.46,1.32,1.27,,0.11,0.01,-0.97,9,0,-0,4015,11.8,4.03,,79,22.01,31,,41.85,,,,,,,,,,,,,,,,,
153443,1529697973490,1.34,1.46,1.32,1.28,,,,,,,,4014,12.0,,,,,,,41.85,,,,,,,,,,,,,,,,,
153463,1529697973502,1.34,1.46,1.32,1.28,,0.02,-0.03,-1.0,9,-0,1,4014,12.0,4.01,,80,22.01,31,,44.1,,,40.845978,-96.770607,1.75,0.003,1189.5,8,3,1.8,0,0.0,-1,0.0,0.0,0.0,0
153483,1529697973522,1.35,1.46,1.32,1.27,,,,,,,,3997,12.0,,,,,,,44.1,,,,,,,,,,,,,,,,,
153503,1529697973542,1.34,1.46,1.32,1.28,,0.09,-0.07,-0.89,9,0,0,3997,12.0,4.0,,79,22.01,31,,44.1,,,,,,,,,,,,,,,,,
153523,1529697973562,1.35,1.46,1.32,1.28,,,,,,,,3997,12.0,,,,,,,44.1,,,,,,,,,,,,,,,,,
153543,1529697973582,1.35,1.46,1.32,1.28,,0.08,0.02,-0.98,9,-0,-0,4017,11.9,4.01,,79,22.01,31,,44.1,,,,,,,,,,,,,,,,,
153563,1529697973610,1.35,1.46,1.32,1.28,,,,,,,,4017,11.9,,,,,,,45.05,,,40.845978,-96.770607,1.91,0.003,1189.3,8,3,1.8,0,0.0,-1,0.0,0.0,0.0,0
153583,1529697973630,1.35,1.46,1.32,1.28,,0.01,-0.07,-0.96,9,0,0,4046,12.0,4.04,,79,22.01,31,,45.05,,,,,,,,,,,,,,,,,
153603,1529697973650,1.34,1.46,1.32,1.28,,,,,,,,4046,12.0,,,,,,,45.05,,,,,,,,,,,,,,,,,
153623,1529697973670,1.35,1.46,1.33,1.28,,0.09,-0.05,-0.78,9,0,0,4046,12.0,4.04,,79,22.01,30,,45.05,,,,,,,,,,,,,,,,,
153643,1529697973690,1.35,1.46,1.32,1.28,,,,,,,,4004,11.5,,,,,,,45.05,,,,,,,,,,,,,,,,,
153663,1529697973704,1.35,1.47,1.32,1.28,,0.04,0.01,-0.89,9,-0,0,4004,11.5,4.02,,80,22.01,30,,42.95,,,40.845978,-96.770607,1.72,0.003,1189.2,8,3,1.8,0,0.0,-1,0.0,0.0,0.0,0
153683,1529697973724,1.35,1.47,1.33,1.28,,,,,,,,3975,11.7,,,,,,,42.95,,,,,,,,,,,,,,,,,
153703,1529697973744,1.35,1.47,1.32,1.28,,0.0,-0.05,-0.85,9,0,1,3975,11.7,3.99,,79,22.01,30,,42.95,,,,,,,,,,,,,,,,,
153723,1529697973764,1.35,1.47,1.33,1.28,,,,,,,,3975,11.7,,,,,,,42.95,,,,,,,,,,,,,,,,,
153743,1529697973792,1.35,1.47,1.33,1.28,,0.08,-0.05,-0.72,9,0,0,3978,11.9,3.96,,79,22.01,30,,42.95,,,,,,,,,,,,,,,,,
153763,1529697973812,1.35,1.47,1.33,1.28,,,,,,,,3978,11.9,,,,,,,42.67,,,40.845978,-96.770607,1.81,0.003,1189.1,8,3,1.8,0,0.0,-1,0.0,0.0,0.0,0
153783,1529697973832,1.35,1.47,1.33,1.29,,0.08,0.01,-0.83,9,-0,-0,3983,11.8,3.93,,79,22.01,30,,42.67,,,,,,,,,,,,,,,,,
153803,1529697973852,1.35,1.47,1.33,1.29,,,,,,,,3983,11.8,,,,,,,42.67,,,,,,,,,,,,,,,,,
153823,1529697973872,1.36,1.47,1.33,1.28,,0.04,-0.03,-0.84,9,-0,0,3983,11.8,3.93,,78,22.01,30,,42.67,,,,,,,,,,,,,,,,,
153843,1529697973892,1.35,1.47,1.33,1.28,,,,,,,,4002,11.7,,,,,,,42.67,,,,,,,,,,,,,,,,,
153863,1529697973906,1.36,1.47,1.33,1.29,,0.11,-0.05,-0.68,10,0,0,4002,11.7,3.91,,79,22.01,30,,42.9,,,40.845978,-96.770607,1.87,0.003,1189.1,8,3,1.8,0,0.0,-1,0.0,0.0,0.0,0
153883,1529697973926,1.35,1.47,1.33,1.29,,,,,,,,4035,11.8,,,,,,,42.9,,,,,,,,,,,,,,,,,
153903,1529697973946,1.36,1.47,1.33,1.29,,0.06,0.06,-0.85,10,-0,1,4035,11.8,3.92,,79,22.01,30,,42.9,,,,,,,,,,,,,,,,,
153923,1529697973966,1.36,1.47,1.33,1.29,,,,,,,,4035,11.8,,,,,,,42.9,,,,,,,,,,,,,,,,,
153943,1529697973986,1.35,1.48,1.33,1.29,,0.05,-0.06,-0.7,9,0,0,4061,11.7,3.97,,79,22.01,30,,42.9,,,,,,,,,,,,,,,,,
153963,1529697974010,1.35,1.47,1.33,1.29,,,,,,,,4061,11.7,,,,,,,43.35,,,40.845982,-96.770615,1.89,0.003,1188.9,8,3,1.8,0,0.0,-1,0.0,0.0,0.0,0
153983,1529697974030,1.36,1.48,1.33,1.29,,0.08,0.04,-0.76,9,-0,0,4028,11.7,3.92,,79,22.01,30,,43.35,,,,,,,,,,,,,,,,,
154003,1529697974050,1.36,1.48,1.33,1.29,,,,,,,,4028,11.7,,,,,,,43.35,,,,,,,,,,,,,,,,,
154023,1529697974070,1.36,1.48,1.33,1.29,,0.0,-0.01,-0.81,10,-1,1,4028,11.7,3.92,,79,22.01,30,,43.35,,,,,,,,,,,,,,,,,
154043,1529697974090,1.36,1.48,1.33,1.3,,,,,,,,4033,11.9,,,,,,,43.35,,,,,,,,,,,,,,,,,
154063,1529697974103,1.36,1.48,1.34,1.29,13.62,0.06,-0.05,-0.76,10,0,1,4033,11.9,3.89,70,79,22.01,30,83,44.2,79,32,40.845982,-96.770615,2.13,0.003,1188.8,8,3,1.8,0,0.0,-1,0.0,0.0,0.0,0
154083,1529697974123,1.36,1.48,1.34,1.29,,,,,,,,4027,11.7,,,,,,,44.2,,,,,,,,,,,,,,,,,
154103,1529697974143,1.36,1.48,1.34,1.3,,0.03,0.04,-0.93,10,-0,1,4027,11.7,3.91,,80,22.01,30,,44.2,,,,,,,,,,,,,,,,,
154123,1529697974163,1.36,1.48,1.34,1.3,,,,,,,,4027,11.7,,,,,,,44.2,,,,,,,,,,,,,,,,,
154143,1529697974191,1.36,1.48,1.34,1.3,,0.02,-0.06,-0.85,10,-0,1,4048,11.3,3.91,,80,22.01,30,,44.2,,,,,,,,,,,,,,,,,
154163,1529697974211,1.36,1.48,1.34,1.3,,,,,,,,4048,11.3,,,,,,,43.38,,,40.845982,-96.770615,2.16,0.003,1188.7,8,3,1.8,0,0.0,-1,0.0,0.0,0.0,0
154183,1529697974231,1.37,1.49,1.34,1.3,,0.06,0.01,-0.84,10,0,1,4040,11.1,3.88,,80,22.01,30,,43.38,,,,,,,,,,,,,,,,,
154203,1529697974251,1.36,1.48,1.34,1.3,,,,,,,,4040,11.1,,,,,,,43.38,,,,,,,,,,,,,,,,,
154223,1529697974271,1.36,1.49,1.34,1.3,,-0.01,-0.0,-0.94,10,-0,2,4040,11.1,3.88,,79,22.01,30,,43.38,,,,,,,,,,,,,,,,,
154243,1529697974291,1.36,1.49,1.34,1.3,,,,,,,,4094,11.1,,,,,,,43.38,,,,,,,,,,,,,,,,,
154263,1529697974305,1.37,1.49,1.34,1.3,,0.04,-0.07,-0.81,10,1,2,4094,11.1,3.88,,79,22.01,30,,45.02,,,40.845982,-96.770615,1.85,0.003,1188.5,8,3,1.8,0,0.0,-1,0.0,0.0,0.0,0
154283,1529697974325,1.36,1.49,1.35,1.3,,,,,,,,4041,11.2,,,,,,,45.02,,,,,,,,,,,,,,,,,
154303,1529697974345,1.37,1.49,1.34,1.3,,0.01,0.04,-1.04,10,-0,1,4041,11.2,3.87,,80,22.01,30,,45.02,,,,,,,,,,,,,,,,,
154323,1529697974365,1.37,1.49,1.34,1.3,,,,,,,,4041,11.2,,,,,,,45.02,,,,,,,,,,,,,,,,,
154343,1529697974393,1.36,1.49,1.34,1.3,,0.06,-0.07,-0.88,11,0,0,4073,11.7,3.88,,80,22.01,30,,45.02,,,,,,,,,,,,,,,,,
154363,1529697974413,1.37,1.49,1.35,1.3,,,,,,,,4073,11.7,,,,,,,43.02,,,40.845982,-96.770615,2.27,0.003,1188.5,8,3,1.8,0,0.0,-1,0.0,0.0,0.0,0
154383,1529697974433,1.37,1.49,1.35,1.3,,0.04,0.05,-1.05,11,0,1,4067,11.8,3.89,,80,22.01,30,,43.02,,,,,,,,,,,,,,,,,
154403,1529697974453,1.37,1.49,1.35,1.31,,,,,,,,4067,11.8,,,,,,,43.02,,,,,,,,,,,,,,,,,
154423,1529697974473,1.37,1.49,1.35,1.31,,0.09,-0.04,-0.99,10,-0,1,4067,11.8,3.89,,80,22.01,30,,43.02,,,,,,,,,,,,,,,,,
154443,1529697974493,1.37,1.49,1.35,1.31,,,,,,,,4106,11.6,,,,,,,43.02,,,,,,,,,,,,,,,,,
154463,1529697974507,1.37,1.49,1.35,1.31,,0.11,0.03,-0.96,10,0,-0,4106,11.6,3.86,,79,22.01,30,,44.0,,,40.845985,-96.770615,2.05,0.003,1188.4,8,3,1.8,0,0.0,-1,0.0,0.0,0.0,0
154483,1529697974527,1.37,1.5,1.35,1.31,,,,,,,,4126,11.5,,,,,,,44.0,,,,,,,,,,,,,,,,,
154503,1529697974547,1.37,1.49,1.35,1.31,,0.09,-0.07,-0.95,11,-0,1,4126,11.5,3.87,,79,22.01,30,,44.0,,,,,,,,,,,,,,,,,
154523,1529697974567,1.37,1.5,1.35,1.31,,,,,,,,4126,11.5,,,,,,,44.0,,,,,,,,,,,,,,,,,
154543,1529697974593,1.37,1.5,1.35,1.31,,0.08,-0.05,-0.85,11,0,0,4128,11.8,3.88,,80,22.01,30,,44.0,,,,,,,,,,,,,,,,,
154563,1529697974613,1.37,1.5,1.35,1.31,,,,,,,,4128,11.8,,,,,,,44.5,,,40.845985,-96.770615,2.13,0.003,1188.3,8,3,1.8,0,0.0,-1,0.0,0.0,0.0,0
154583,1529697974633,1.37,1.5,1.35,1.31,,-0.04,-0.03,-0.98,11,-1,1,4132,11.7,3.84,,80,22.01,30,,44.5,,,,,,,,,,,,,,,,,
154603,1529697974653,1.37,1.5,1.35,1.31,,,,,,,,4132,11.7,,,,,,,44.5,,,,,,,,,,,,,,,,,
154623,1529697974673,1.38,1.5,1.35,1.31,,0.04,-0.04,-0.91,11,0,0,4132,11.7,3.84,,80,22.01,30,,44.5,,,,,,,,,,,,,,,,,
154643,1529697974693,1.38,1.5,1.36,1.32,,,,,,,,4103,11.3,,,,,,,44.5,,,,,,,,,,,,,,,,,
154663,1529697974705,1.37,1.5,1.36,1.31,,-0.06,-0.01,-1.02,11,-0,1,4103,11.3,3.83,,80,22.01,30,,45.33,,,40.845985,-96.770615,2.45,0.003,1188.2,8,3,1.8,0,0.0,-1,0.0,0.0,0.0,0
154683,1529697974725,1.38,1.5,1.35,1.31,,,,,,,,4132,11.7,,,,,,,45.33,,,,,,,,,,,,,,,,,
154703,1529697974745,1.38,1.5,1.36,1.32,,0.08,-0.02,-0.86,11,1,-0,4132,11.7,3.83,,79,22.01,30,,45.33,,,,,,,,,,,,,,,,,
154723,1529697974765,1.37,1.5,1.36,1.32,,,,,,,,4132,11.7,,,,,,,45.33,,,,,,,,,,,,,,,,,
154743,1529697974795,1.37,1.51,1.36,1.32,,-0.03,-0.01,-0.94,11,-0,-0,4145,11.5,3.85,,80,22.01,30,,45.33,,,,,,,,,,,,,,,,,
154763,1529697974815,1.38,1.5,1.36,1.32,,,,,,,,4145,11.5,,,,,,,45.02,,,40.845985,-96.770615,2.16,0.004,1188.1,8,3,1.8,0,0.0,-1,0.0,0.0,0.0,0
154783,1529697974835,1.38,1.51,1.36,1.32,,0.07,0.04,-0.93,11,0,-0,4201,11.2,3.8,,80,22.01,30,,45.02,,,,,,,,,,,,,,,,,
154803,1529697974855,1.38,1.5,1.36,1.32,,,,,,,,4201,11.2,,,,,,,45.02,,,,,,,,,,,,,,,,,
154823,1529697974875,1.38,1.51,1.36,1.32,,0.04,-0.09,-0.87,11,0,0,4201,11.2,3.8,,79,22.01,30,,45.02,,,,,,,,,,,,,,,,,
154843,1529697974895,1.38,1.5,1.36,1.32,,,,,,,,4207,11.4,,,,,,,45.02,,,,,,,,,,,,,,,,,
154863,1529697974907,1.38,1.51,1.36,1.32,,-0.09,0.02,-1.03,11,-0,1,4207,11.4,3.8,,79,22.01,30,,47.08,,,40.845985,-96.770622,2.07,0.004,1188.0,8,3,1.8,0,0.0,-1,0.0,0.0,0.0,0
154883,1529697974927,1.38,1.51,1.36,1.32,,,,,,,,4277,11.3,,,,,,,47.08,,,,,,,,,,,,,,,,,
154903,1529697974947,1.38,1.51,1.36,1.32,,0.0,-0.0,-0.83,11,1,-1,4277,11.3,3.83,,79,22.01,30,,47.08,,,,,,,,,,,,,,,,,
154923,1529697974967,1.37,1.51,1.36,1.32,,,,,,,,4277,11.3,,,,,,,47.08,,,,,,,,,,,,,,,,,
154943,1529697974993,1.37,1.51,1.36,1.32,,0.08,-0.09,-0.83,11,1,-1,4330,11.3,3.85,,79,22.01,30,,47.08,,,,,,,,,,,,,,,,,
154963,1529697975013,1.38,1.51,1.36,1.32,,,,,,,,4330,11.3,,,,,,,48.4,,,40.845989,-96.770622,2.22,0.004,1187.9,8,3,1.8,0,0.0,-1,0.0,0.0,0.0,0
154983,1529697975033,1.38,1.51,1.37,1.32,,-0.08,-0.11,-0.81,12,-0,0,4304,10.8,3.77,,79,22.01,30,,48.4,,,,,,,,,,,,,,,,,
